,population,city,country,latitude,longitude
0,150178,Piedras Negras,Mexico,,
1,203007,Oxnard,USA,34.2023,-119.2046
2,163049,Desē,Ethiopia,11.15,39.66
3,147478,Torrance,USA,33.835,-118.3414
4,140000,Oturkpo,Nigeria,"7,195","8,136"
5,119647,Derbent,Russia,42.05,48.3
6,142579,Bima,Indonesia,,
7,22265426,Shanghai,China,31.2253441,121.4888922
8,350000,Cabinda,Angola,-5.6,12.19
9,205059,Akyab,Myanmar,"20,14","92,89"
10,198565,Kaolack,Senegal,"14,156","-16,077"
11,183274,Rewa,India,24.53,81.3
12,147273,Cienfuegos,Cuba,22.237978,-80.365865
13,116980,Zoetermeer,Netherlands,52.060669,4.494025
14,19610000,Beijing,China,39.9059093,116.3913489
15,13120596,Istanbul,Turkey,41.008929,28.967115
16,12478447,Mumbai,India,19.075984,72.877656
17,11969284,Karachi,Pakistan,24.861462,67.009939
18,11918057,MOSKVA,Russia,55.755826,37.6173
19,11895893,São Paulo,Brazil,-23.593318,-46.614033
20,11090314,Tianjin,China,39.1235635,117.1980785
21,11070654,Guangzhou,China,23.1300037,113.259001
22,11007835,Delhi,India,28.613939,77.209021
23,10590000,Lagos,Nigeria,"6,645","3,329"
24,10357938,Shenzhen,China,22.5342531,114.111748
25,10251297,Seoul,Republic of Korea,37.566535,126.977969
26,9780644,Wuhan,China,30.5960213,114.2992796
27,9588198,Jakarta,Indonesia,-6.208763,106.845599
28,8851080,Mexico City,Mexico,19.432608,-99.133208
29,8637098,Tokyo,Japan,35.681382,139.766084
30,8425970,Bengaluru,India,12.971599,77.594563
31,8405837,New York,USA,40.6643,-73.9385
32,8305218,Bangkok,Thailand,13.756331,100.501765
33,8220937,Dongguan,China,23.0449275,113.7524781
34,8174100,London,United Kingdom,51.507351,-0.127758
35,8154051,Teheran,Iran,35.696111,51.423056
36,7947121,Cairo,Egypt,30.04442,31.235712
37,7677122,Chengdu,China,30.6765553,104.0612783
38,7674366,Bogotá,Colombia,4.701916,-74.144195
39,7457589,Chongqing,China,30.05518,107.8748712
40,7208618,Kinshasa,Democratic Republic of the Congo,-4.4,15.32
41,7208200,Ahmedabad,India,23.022505,72.571362
42,7165828,Nanjing,China,32.0609158,118.7916065
43,7123340,Hồ Chí Minh Stadt,Vietnam,10.823099,106.629664
44,7055071,Hong Kong,China,22.2793278,114.1628131
45,6809970,Hyderabad,India,17.385044,78.486671
46,6501189,Xi'an,China,34.2191582,109.110194631
47,6485175,Lahore,Pakistan,31.473178,74.302767
48,6453682,Rio de Janeiro,Brazil,-22.913693,-43.171828
49,6448837,Hà Nội,Vietnam,21.027764,105.83416
50,6280000,Onitsha,Nigeria,"6,113","6,790"
51,6255921,Shenyang,China,41.8045293,123.4277858
52,6242000,Hangzhou,China,30.2665643,120.149335
53,5831541,Bagdad,Iraq,33.325,44.422
54,5644235,Dhaka,Bangladesh,23.7282161,90.4098792
55,5399200,Singapore,Singapore,1.280095,103.850949
56,5349090,Suzhou,China,31.2984758,120.622239
57,5289364,Caracas,Venezuela,10.46964,-66.803718
58,5230000,Luanda,Angola,-8.87,13.28
59,5132794,Toronto,Canada,43.653226,-79.383184
60,5105860,Santiago de Chile,Chile,-33.46912,-70.641997
61,4990602,St. Petersburg,Russia,59.93428,30.335099
62,4948920,Rangoon,Myanmar,"16,79","96,15"
63,4681087,Chennai,India,13.08268,80.270718
64,4672619,Greater Sydney,Australia,-33.867487,151.20699
65,4587200,Qingdao,China,36.0895093,120.3497193
66,4517549,Harbin,China,45.7656666,126.6160584
67,4498535,Khartum,Sudan,15.6,32.53
68,4486679,Kolkata,India,22.572646,88.363895
69,4450000,Aleppo,Syria,36.211683,37.1473
70,4436257,Nairobi,Kenya,-1.26,36.82
71,4431719,Ankara,Turkey,39.92077,32.85411
72,4335900,Jinan,China,36.646804,117.0141223
73,4293416,Sydney,Australia,-33.867487,151.20699
74,4253627,Zhengzhou,China,34.7591877,113.6524076
75,4248344,Greater Melbourne,Australia,-38.109475,144.353185
76,4247414,Alexandria,Egypt,31.200092,29.918739
77,4087733,Dalian,China,38.920716,121.6388678
78,4087152,Riad,Saudi-Arabia,27.177545,49.531898
79,4086734,Melbourne,Australia,-37.814107,144.96328
80,3966553,Abidjan,Côte d'Ivoire,"5,353","-4,029"
81,3884307,Los Angeles,USA,34.0194,-118.4108
82,3760636,Pune,India,18.52043,73.856744
83,3631236,Yokohama,Japan,35.550157,139.578215
84,3629813,Accra,Ghana,"5,550","-0,217"
85,3583429,Kunming,China,25.0515153,102.7017638
86,3548640,Busan,Republic of Korea,35.179554,129.075642
87,3542319,Wuxi,China,31.5756347,120.2954534
88,3531347,Xiamen,China,24.497442,118.1355644
89,3530115,Changchun,China,43.8144046,125.3169424
90,3491597,Ningbo,China,29.8720259,121.549887
91,3437171,Nanning,China,22.8325591,108.3027168
92,3426522,Taiyuan,China,37.8527666,112.5531768
93,3421829,Berlin,Germany,52.5170365,13.3888599
94,3407963,Montreal,Canada,45.501689,-73.567256
95,3354934,İzmir,Turkey,38.423734,27.142826
96,3352076,Hefei,China,31.8228094,117.2218033
97,3290548,Changzhou,China,31.7895377,119.9387608
98,3289000,Kabul,Afghanistan,34.533333,69.166667
99,3258540,Giza,Egypt,30.013056,31.208853
100,3255288,Pyongyang,Democratic People's Republic of Korea,39.039219,125.762524
101,3213271,Madrid,Spain,40.416775,-3.70379
102,3187171,Tangshan,China,39.633333,118.183333
103,3150000,Kano,Nigeria,"11,958","8,500"
104,3102000,Casablanca,Morocco,33.57311,-7.589843
105,3093980,Changsha,China,28.1873765,112.9835823
106,3073350,Jaipur,India,26.912434,75.787271
107,3066110,Dar es Salaam,Tanzania,-6.8,39.21
108,3053778,Xuzhou,China,34.2683747,117.1976092
109,3039500,Wenzhou,China,28.0221989,120.648392
110,3037159,Guiyang,China,26.5814112,106.7052544
111,3029372,Ürümqi,China,43.8059382,87.6055852
112,2980800,Zibo,China,36.8047833,118.0444472
113,2959518,Āddīs Ābebā,Ethiopia,8.98,38.74
114,2921763,Fuzhou,China,26.0771539,119.2914774
115,2902927,Salvador,Brazil,-13.00595,-38.463049
116,2890151,Buenos Aires,Argentina,-34.603723,-58.381593
117,2876374,Surat,India,21.17024,72.831061
118,2861784,Shijiazhuang,China,38.0359808,114.4627725
119,2852372,Brasília,Brazil,-15.900129,-47.771236
120,2815601,Lucknow,India,26.846511,80.946683
121,2808286,Incheon,Republic of Korea,37.476364,126.616936
122,2803716,Kiev,Ukraine,50.4501,30.5234
123,2801481,Dschidda,Saudi-Arabia,21.790138,39.149328
124,2777979,Rome,Italy,41.902784,12.496366
125,2767031,Kanpur,India,26.449923,80.331874
126,2766258,Mashhad,Iran,36.260462,59.616755
127,2765487,Surabaya,Indonesia,-7.26424,112.745579
128,2761720,Quezon City,Philippines,14.676041,121.0437
129,2718782,Chicago,USA,41.8376,-87.6818
130,2645305,Osaka,Japan,34.653345,135.511968
131,2633420,Huai'an,China,33.5896837,119.0212439
132,2600200,Linyi,China,35.1040224,118.3507128
133,2582175,Faisalabad,Pakistan,31.418714,73.079107
134,2575478,Bandung,Indonesia,-6.914864,107.608242
135,2571896,Fortaleza,Brazil,-3.73108,-38.511285
136,2562152,Dakar,Senegal,"14,740","-17,490"
137,2529000,Damasus rural,Syria,33.516729,36.954107
138,2510951,Bekasi,Indonesia,-6.249028,106.996952
139,2508563,Daegu,Republic of Korea,35.871435,128.601445
140,2492325,Lanzhou,China,36.0612545,103.8318602
141,2491109,Belo Horizonte,Brazil,-19.928485,-43.924227
142,2470000,Ibadan,Nigeria,"7,421","3,918"
143,2450559,Maracaibo,Venezuela,10.633333,-71.633333
144,2448710,ASUNCION,Paraguay,-25.282197,-57.6351
145,2417325,Medellín,Colombia,6.25225,-75.5735
146,2405421,Nagpur,India,21.1458,79.088155
147,2399079,Yangzhou,China,32.3926973,119.4365759
148,2364230,Algiers,Algeria,36.752887,3.042048
149,2357838,Nanchang,China,28.6788417,115.8934012
150,2344507,Huizhou,China,23.1060862,114.4141105
151,2319684,Cali,Colombia,3.35478,-76.55793
152,2299026,Valencia,Venezuela,10.157931,-67.99721
153,2291158,Guayaquil,Ecuador,-2.170998,-79.922359
154,2279433,Nyanza Conurbation,Kenya,-0.66,34.72
155,2273326,Nantong,China,31.9822235,120.8914202
156,2271544,Bassorah,Iraq,30.5,47.816667
157,2269862,Bamako,Mali,"12,650","-7,990"
158,2252288,Kumasi,Ghana,"6,694","-1,586"
159,2243833,Paris,France,48.856614,2.352222
160,2239464,Nagoya,Japan,35.136395,136.934833
161,2220624,Mossoul,Iraq,36.34,43.13
162,2199689,Xiangyang,China,32.0553487,112.1294081
163,2199590,Chittagong,Bangladesh,22.3256945,92.1191345993
164,2195914,Houston,USA,29.7805,-95.3863
165,2192065,Greater Brisbane,Australia,-27.471011,153.023449
166,2137218,Tashkent,Uzbekistan,41.266667,69.216667
167,2136595,BAKU,Azerbaijan,40.409262,49.867092
168,2135201,Vancouver,Canada,49.282729,-123.120738
169,2125136,Zaozhuang,China,34.8500093,117.559424
170,2105291,LA HABANA,Cuba,23.159167,-82.271056
171,2099328,Brisbane,Australia,-27.471011,153.023449
172,2070801,Baotou,China,40.660201,109.8303243
173,2046189,Haikou,China,20.0423626,110.3409936
174,2038400,Yiwu,China,29.311254,120.0709185
175,2029797,Medan,Indonesia,3.591541,98.6693
176,2027000,Amman,Jordan,31.956578,35.945695
177,2022867,Sana'a,Yemen,15.369445,44.191007
178,2020301,Manaus,Brazil,-3.107018,-60.053358
179,1980774,Hohhot,China,40.8337963,111.6730788
180,1975803,Jilin City,China,43.5999719,126.857824142
181,1960631,Indore,India,22.719569,75.857726
182,1953801,Putian,China,25.4342199,119.0074625
183,1925948,Luoyang,China,34.6556873,112.4209629
184,1922005,Douala,Cameroon,4.05,9.71
185,1907666,Ouagadougou,Burkina Faso,"12,362","-1,526"
186,1905570,Bursa,Turkey,40.182846,29.067084
187,1904319,Sapporo,Japan,43.06208,141.354361
188,1902500,Taizhou,China,32.4849554,119.9117284
189,1899999,Greater Perth,Australia,-31.953513,115.857047
190,1893063,Minsk,Belarus,53.90454,27.561524
191,1880000,Uyo,Nigeria,"5,048","7,778"
192,1870600,Yantai,China,37.5340488,121.389463
193,1864416,Curitiba,Brazil,-25.423541,-49.317431
194,1858875,Nanchong,China,30.7955696,106.0835539
195,1837302,Hải Phòng,Vietnam,20.844912,106.688084
196,1834184,Perth,Australia,-31.953513,115.857047
197,1822640,Jiangmen,China,22.5766294,113.079047
198,1818872,Thane,India,19.218331,72.97809
199,1811732,Nanyang,China,33.0010496,112.5292693
200,1798601,Tangerang,Indonesia,-6.178306,106.631889
201,1795648,Bhopal,India,23.259933,77.412615
202,1793197,Rawalpindi,Pakistan,33.598394,73.044135
203,1778583,Lu'an,China,31.7383487,116.5142252
204,1768947,Fuyang,China,32.8926763,115.8090001
205,1756126,Esfahan,Iran,32.654627,51.667983
206,1751696,Depok,Indonesia,-6.388877,106.830069
207,1747152,LUSAKA,Zambia,-15.416667,28.283333
208,1746342,Hamburg,Germany,53.5437641,10.0099133
209,1740041,Budapest,Hungary,47.497912,19.040235
210,1737517,Datong,China,40.0893933,113.2801671
211,1735500,Tai'an,China,36.2003367,117.0808279
212,1732047,Kampala,Uganda,0.27,32.62
213,1731236,Vienna,Austria,48.208174,16.373819
214,1730320,Visakhapatnam,India,17.686816,83.218482
215,1700612,Warsaw,Poland,52.229676,21.012229
216,1697976,Patna,India,25.611,85.144
217,1680000,DAMASCUS,Syria,33.513,36.292
218,1677985,Bucharest,Romania,44.426767,26.102538
219,1667000,Homs,Syria,34.730833,36.709444
220,1666826,Huainan,China,32.6604304,117.0250917
221,1666703,Vadodara,India,22.307159,73.181219
222,1664218,Beograde,Serbia,44.786568,20.448922
223,1655015,Ecatepec,Mexico,19.601841,-99.050674
224,1652171,Manila,Philippines,14.599512,120.98422
225,1649825,Daqing,China,46.5969028,125.1014811
226,1647642,Suzhou,China,31.2984758,120.622239
227,1645675,Firozabad,India,27.159101,78.395757
228,1644783,KUALA LUMPUR,Malaysia,3.139003,101.686855
229,1620758,Mandalay,Myanmar,"21,98","96,09"
230,1619146,QUITO,Ecuador,-0.180653,-78.467838
231,1616063,Santa Cruz,Bolivia,-17.866667,-63
232,1615717,Yancheng,China,33.3939707,120.1349541
233,1614626,Karaj,Iran,35.811057,50.984079
234,1613878,Ludhiana,India,30.900965,75.857276
235,1612300,Zhanjiang,China,21.2021916,110.4045975
236,1608488,Recife,Brazil,-8.085592,-34.895025
237,1607022,Harare,Zimbabwe,-17.863889,31.029722
238,1606745,Rajkot,India,22.303895,70.80216
239,1605602,Barcelona,Spain,41.385064,2.173403
240,1603700,Tengzhou,China,35.0830599,117.153469
241,1600692,Yaoundé,Cameroon,3.86,11.52
242,1594829,Jiangyin,China,31.9092756,120.2630426
243,1591518,Adana,Turkey,37,35.321333
244,1574542,Agra,India,27.17667,78.008075
245,1572000,Siliguri,India,26.708382,88.426874
246,1570791,Phnom Penh,Cambodia,11.544873,104.892167
247,1560229,Zhuhai,China,22.2657516,113.568045
248,1555984,Semarang,Indonesia,-6.966667,110.416667
249,1553165,Philadelphia,USA,40.0094,-75.1333
250,1544084,Anshan,China,40.78195365,122.789233036
251,1530847,Kobe,Japan,34.720309,135.265887
252,1529400,Auckland,New Zealand,-36.84846,174.763332
253,1521600,Weifang,China,36.7084113,119.1044787
254,1518651,Daejeon,Republic of Korea,36.350412,127.384548
255,1513367,Phoenix,USA,33.5722,-112.088
256,1511369,Novosibirsk,Russia,55.008353,82.935733
257,1510103,Changshu,China,31.6434085,120.7408552
258,1508000,Hama,Syria,35.133333,36.75
259,1506156,Brazzaville,Republic of the Congo,-4.25,15.26
260,1495182,Guadalajara,Mexico,20.677504,-103.347824
261,1494998,Tabriz,Iran,38.066667,46.3
262,1493874,Guigang,China,23.099092,109.60844
263,1489040,Caloocan,Philippines,14.65,120.966667
264,1486973,Nashik,India,19.997453,73.789802
265,1485231,HARARE,Zimbabwe,-17.863889,31.029722
266,1481637,Qiqihar,China,47.338544,123.9511506
267,1478733,Barquisimeto,Venezuela,10.063611,-69.334722
268,1472482,Porto Alegre,Brazil,-30.033711,-51.214395
269,1471978,Multan,Pakistan,30.222933,71.480409
270,1468906,Kyoto,Japan,34.985458,135.757755
271,1468061,Dengzhou,China,32.6888657,112.0837091
272,1466516,Gwangju,Republic of Korea,35.159545,126.852601
273,1462383,Cixi,China,30.183333,121.233333
274,1460665,Shiraz,Iran,29.611903,52.583731
275,1460000,Nsukka,Nigeria,"6,866","7,444"
276,1458536,Changde,China,29.040525,111.6781103
277,1458036,Pizhou,China,34.3142567,117.9419078
278,1449296,Davao City,Philippines,7.190708,125.455341
279,1449284,Lome,Togo,"6,142","1,252"
280,1437802,Baoji,China,34.3860459,107.2409063
281,1437686,Suqian,China,33.9564492,118.2945375
282,1436599,Liuzhou,China,24.3213044,109.4066186
283,1434062,Puebla,Mexico,19.103906,-98.188942
284,1432844,Belém,Brazil,-1.251813,-48.456838
285,1431461,Kharkov,Ukraine,49.9935,36.230383
286,1430371,Fukuoka,Japan,33.590355,130.401716
287,1425606,Maracay,Venezuela,10.246944,-67.596111
288,1421834,Gujranwala,Pakistan,32.233004,74.049772
289,1420285,Ekaterinburg,Russia,56.838926,60.605703
290,1417567,Taizhou,China,32.4849554,119.9117284
291,1417082,Hyderabad,Pakistan,25.381751,68.36939
292,1412364,Goiânia,Brazil,-16.632425,-49.273152
293,1411380,Yichang,China,30.771111,111.321667
294,1409436,Bozhou,China,33.8601432,115.7833234
295,1409019,San Antonio,USA,29.4724,-98.5251
296,1408632,Conakry,Guinea,"9,672","-13,567"
297,1407836,Munich,Germany,48.1372719,11.5754815
298,1404653,Faridabad,India,28.408912,77.317789
299,1398427,Quanzhou,China,25.22314005,118.149366456
300,1392000,Al-Hasakeh,Syria,36.405515,40.796915
301,1391499,Maputo,Mozambique,-25.966667,32.583333
302,1380000,Port Harcourt,Nigeria,"4,786","7,003"
303,1376000,Idleb,Syria,35.933333,36.633333
304,1373630,Kawasaki,Japan,35.529667,139.703848
305,1372565,Stockholm,Sweden,59.329323,18.068581
306,1366800,Wenling,China,28.3675,121.373611
307,1365105,Almaty,Kazakhstan,43.222015,76.851249
308,1362062,Zigong,China,29.35702,104.7610274
309,1356987,Fushun,China,41.85926445,124.511135099
310,1355896,San Diego,USA,32.8153,-117.135
311,1355331,Mianyang,China,31.458932,104.750108
312,1354686,Patiala,India,30.34,76.38
313,1347298,Milan,Italy,45.465422,9.185924
314,1346708,Shantou,China,23.3652979,116.6948819
315,1346700,Heze,China,35.2477266,115.4464761
316,1345086,ULAANBAATAR,Mongolia,47.92,106.92
317,1342258,Palembang,Indonesia,-2.990934,104.756556
318,1341054,Gaziantep,Turkey,37.06622,37.38332
319,1333526,Chifeng,China,42.2724253,118.9670743
320,1329604,Córdoba,Argentina,-31.39893,-64.182129
321,1321609,Lubumbashi,Democratic Republic of the Congo,-11.66,27.48
322,1321004,Juárez,Mexico,31.738498,-106.472103
323,1312197,Guarulhos,Brazil,-23.464579,-46.531664
324,1310000,Kénitra,Morocco,34.25,-6.583333
325,1309023,Meerut,India,28.984462,77.706414
326,1307042,Wuhu,China,31.3425803,118.3536912
327,1305082,MONTEVIDEO,Uruguay,-34.901113,-56.164531
328,1300983,Tijuana,Mexico,32.522984,-117.112586
329,1298500,Laiwu,China,36.2140516,117.6698833
330,1294168,Mekka,Saudi-Arabia,21.416667,39.816667
331,1293877,Haicheng,China,40.8518336,122.7433343
332,1290322,South Tangerang,Indonesia,-6.288889,106.718056
333,278622,Bago,Myanmar,"17,33","96,50"
334,1290170,Yinchuan,China,38.4829194,106.2116014
335,1285995,Prague,Czech Republic,50.075538,14.4378
336,1278432,Greater Adelaide,Australia,-34.928621,138.599959
337,1267066,Rugao,China,32.3926766,120.563809
338,1266231,Nizhny Novgorod,Russia,56.296504,43.936059
339,1257676,Dallas,USA,32.7757,-96.7967
340,1253687,Peshawar,Pakistan,34.014975,71.58049
341,1251095,Neijiang,China,29.5892089,105.0581721
342,1250795,Adelaide,Australia,-34.928621,138.599959
343,1248414,Zhangjiagang,China,31.8664895,120.5426833
344,1248000,Marrakech,Morocco,31.63,-8.008889
345,1246381,Kalyan-Dombivali,India,19.217172,73.089276
346,1246381,Kalyan-Dombivali,India,19.217172,73.089276
347,1238962,León,Mexico,21.019015,-101.257359
348,1235476,Yixing,China,31.3495972,119.817253
349,1234838,Fuqing,China,25.6815643,119.3806049
350,1232133,Yueyang,China,29.3589447,113.1230108
351,1230728,Copenhagen,Denmark,55.676097,12.568337
352,1229959,Xinyang,China,32.127372,114.0676596
353,329000,Ondo,Nigeria,"7,082","4,838"
354,1229800,Liaocheng,China,36.4441808,115.9642007
355,1221233,Vasai-Virar,India,19.391928,72.839732
356,1217715,Maoming,China,21.6729946,110.9100185
357,1212000,MOGADISHU,Somalia,2.033333,45.35
358,1206946,Barranquilla,Colombia,10.978478,-74.779846
359,1202761,Sofia,Bulgaria,42.697708,23.321868
360,1201900,Jiaxing,China,30.7482172,120.7512059
361,1201815,Varanasi,India,25.317645,82.973914
362,1200400,Zhenjiang,China,32.2139599,119.458012
363,1198304,Xining,China,36.6219037,101.7729898
364,1197174,Tianshui,China,34.62845105,105.529798021
365,1194583,Makassar,Indonesia,-5.144379,119.426638
366,1192792,Srinagar,India,34.083658,74.797368
367,1192418,Saitama,Japan,35.861729,139.645482
368,1188000,El-Jadida,Morocco,33.233333,-8.5
369,1187089,Cần Thơ,Vietnam,10.045162,105.746854
370,1178873,Huazhou,China,21.6516763,110.6404799
371,1172700,TBILISI,Georgia,41.716667,44.783333
372,1170485,Samara (Samarskaya oblast),Russia,53.202778,50.140833
373,1170000,Monrovia,Liberia,"6,342","-10,748"
374,1169829,Niamey,Niger,"13,523","2,120"
375,1168745,Kazan,Russia,55.790278,49.134722
376,1165182,Dingzhou,China,38.513056,114.995556
377,1163806,Hiroshima,Japan,34.398205,132.475824
378,1161561,Dhanbad,India,23.795653,86.430386
379,1158989,Chon Buri,Thailand,13.361143,100.984672
380,1158627,Omsk,Russia,54.983333,73.366667
381,1158625,Cotonou,Benin,"6,370","2,420"
382,1157900,Zhuji,China,29.716111,120.234167
383,1157891,Baoding,China,38.857936,115.4906984
384,1154617,Campinas,Brazil,-22.895626,-47.066359
385,1154086,Jingzhou,China,30.3538693,112.1869371
386,1153860,Batam,Indonesia,1.151828,104.038294
387,1149829,Chelyabinsk,Russia,55.164442,61.436843
388,1146761,Anyang,China,36.1023552,114.33633
389,1143078,Rizhao,China,35.3979052,119.5290707
390,1142483,Zapopan,Mexico,20.659538,-103.349438
391,1139400,Shouguang,China,36.8762356,118.7322549
392,1137000,Jodhpur,India,26.238947,73.024309
393,1136948,Ulsan,Republic of Korea,35.538377,129.31136
394,1135512,Monterrey,Mexico,25.592172,-99.996195
395,1135166,Hengyang,China,26.8949894,112.6024687
396,1132761,Amritsar,India,31.633979,74.872264
397,1131819,Yuzhou,China,34.1598968,113.4666612
398,1126790,Bazhong,China,31.8587495,106.7526106
399,1126345,Bat Dambang,Cambodia,13.09573,103.202205
400,1126306,SANTO DOMINGO,Dominican Republic,18.466667,-69.95
401,1126000,Fès,Morocco,34.033333,-5
402,1122555,Raipur,India,21.251384,81.629641
403,1120000,Abuja,Nigeria,"9,058","7,425"
404,1120000,Benin City,Nigeria,"6,346","5,616"
405,1119477,Navi Mumbai,India,19.033049,73.029662
406,1117094,Allahabad,India,25.435801,81.846311
407,1116700,Zoucheng,China,35.4027214,116.9681797
408,1115300,Jining,China,35.4125047,116.5849266
409,1113321,Huaibei,China,33.9575437,116.7928328
410,1112021,Ahwaz,Iran,31.314001,48.667481
411,1111000,Deir El-Zor,Syria,35.336,40.145
412,1104585,Nezahualcóyotl,Mexico,19.432608,-99.133208
413,1100091,Rostov-na-Donu,Russia,47.233333,39.7
414,1098010,Suwon,Republic of Korea,37.263573,127.028601
415,1095404,Calgary,Canada,51.048615,-114.070846
416,1095189,Zunyi,China,27.71176,106.9275557
417,1094294,Benxi,China,41.2922207,123.7594197
418,1091799,Jinzhou,China,41.108528,121.1194219
419,1091733,Changwon,Republic of Korea,35.270833,128.663056
420,1089000,Dubai,United Arab Emirates,25.204849,55.270783
421,1086200,Zhucheng,China,30.8497265,114.7988108
422,1084420,Ufa,Russia,54.738762,55.972055
423,1082993,Samut Prakan,Thailand,13.599096,100.599832
424,1077300,Jinhua,China,29.0815452,119.642839
425,1074300,Birmingham,United Kingdom,52.486243,-1.890401
426,1074036,Qom,Iran,34.639944,50.875942
427,1073921,Taixing,China,32.1696072,120.0160999
428,1064200,Zhangqiu,China,36.718628,117.522179
429,1064197,São Luís,Brazil,-2.559049,-44.308333
430,1061447,Coimbatore,India,11.016845,76.955832
431,1060138,Yerewan,Armenia,40.183333,44.516667
432,1055373,Zhuzhou,China,27.8535859,113.1331533
433,1054336,Jabalpur,India,23.166667,79.933333
434,1053505,Gwalior,India,26.218287,78.182831
435,1050080,Ciudad Guayana,Venezuela,8.268607,-62.753148
436,1049831,Lianyungang,China,34.6092633,119.1695305
437,1048672,Ezhou,China,30.3971188,114.886707
438,1048240,Vijayawada,India,16.506174,80.648015
439,1047020,Xinxiang,China,35.3044775,113.9208499
440,1045370,Shubra El-Kheima,Egypt,30.121675,31.245176
441,1036027,Konya,Turkey,37.866667,32.483333
442,1034175,Cologne,Germany,50.9383611,6.9599738
443,1033975,Pingdingshan,China,33.7378279,113.2975031
444,1032048,Yingkou,China,40.6772444,122.2341814
445,1031903,São Gonçalo,Brazil,-22.826637,-43.04482
446,1029670,Qinhuangdao,China,31.2512541,121.5121092
447,1029552,Sendai,Japan,38.260297,140.882049
448,1028800,Linhai,China,28.85,121.116667
449,1025244,Tripolis,Libya,32.813311,13.104845
450,1024906,Padang,Indonesia,-0.95,100.353056
451,1023000,Settat,Morocco,33,-7.6167
452,1022002,Bogor,Indonesia,-6.6,106.8
453,1022001,Guatemala City,Guatemala,14.613333,-90.535278
454,1018762,Volgograd,Russia,48.7,44.516667
455,1016885,Madurai,India,9.925201,78.119775
456,1015140,Antananarivo,Madagascar,-18.933333,47.516667
457,1010295,Wuwei,China,38.10884025,102.828264718
458,1010000,Aba,Nigeria,"5,105","7,381"
459,1007654,Krasnoyarsk,Russia,56.015283,92.893248
460,1007285,Perm,Russia,58,56.316667
461,1006749,Brussels,Belgium,50.85034,4.35171
462,1005570,Ndjamena,Chad,"12,130","15,061"
463,1005500,Hezhou,China,24.4160764,111.5436581
464,1005319,Maceió,Brazil,-9.567859,-35.790066
465,1005043,PANAMA DE PANAMA,Panama,8.983333,-79.516667
466,1004820,San Cristóbal,Venezuela,7.744996,-72.235639
467,1004741,Zaoyang,China,32.1247728,112.7588839
468,1004500,Naples,Italy,40.851775,14.268124
469,1003626,Xiangcheng,China,33.4430697,114.9031316
470,1003285,KATHMANDU,Nepal,27.7,85.333333
471,1001318,Antalya,Turkey,36.888025,30.7037
472,1001000,Salé,Morocco,34.033697,-6.770814
473,999703,Seam Reab,Cambodia,13.691538,104.100133
474,998537,San Jose,USA,37.2969,-121.8193
475,998262,Mbuji-Mayi,Democratic Republic of the Congo,-6.12,23.58
476,997447,Voronezh,Russia,51.675497,39.208882
477,997189,Odessa,Ukraine,46.482526,30.72331
478,993468,Arbil,Iraq,36.191111,44.009167
479,990558,PORT-AU-PRINCE,Haiti,18.533333,-72.333333
480,990025,Dnepropetrovsk,Ukraine,48.477418,35.01473
481,988000,Kaduna,Nigeria,"10,529","7,450"
482,987007,CAPE TOWN,South Africa,-33.924868,18.424055
483,986998,Kitakyūshū,Japan,33.839615,131.03178
484,985143,MANAGUA,Nicaragua,12.136389,-86.251389
485,980000,Béni-Mellal,Morocco,32.339444,-6.360833
486,979412,Seongnam,Republic of Korea,37.432597,127.13806
487,978600,Cartagena,Colombia,10.402313,-75.505112
488,975638,Guilin,China,25.276006,110.2847529
489,972784,Bengbu,China,32.9182905,117.3824772
490,972525,Qidong,China,31.8127933,121.656138
491,967020,Chiang Mai,Thailand,18.787747,98.993128
492,966393,Santo Domingo East - Santo Domingo Este,Dominican Republic,18.485497,-69.873406
493,965154,Mudanjiang,China,44.5794776,129.6129687
494,963429,Guwahati,India,26.144517,91.736237
495,961451,Goyang,Republic of Korea,37.709044,126.902251
496,960787,Chandigarh,India,30.733315,76.779418
497,960646,Donetsk,Ukraine,48.015883,37.80285
498,960418,Danyang,China,32.0109736,119.6012702
499,960015,Edmonton,Canada,53.544389,-113.490927
500,959303,Xiangtan,China,27.8595302,112.8995403
501,957634,Bangui/Zongo,Central African Republic,4.40,18.55
502,953253,El Alto,Bolivia,-16.500094,-68.214686
503,951000,Lattakia,Syria,35.53,35.78
504,950017,Kayseri,Turkey,38.73122,35.478729
505,948312,Rosario,Argentina,-32.950741,-60.6665
506,947499,Wuchuan,China,21.4431015,110.7717184
507,946600,Feicheng,China,36.1841443,116.7653466
508,945420,Xianyang,China,34.3049864,108.7256803
509,944050,Linfen,China,36.0941478,111.5150764
510,943857,Hubli-Dharwad,India,15.361667,75.085
511,941427,Handan,China,36.583333,114.483333
512,938695,Chiba,Japan,35.612858,140.11434
513,936789,Hengyang,China,26.8949894,112.6024687
514,933596,Ottawa–Gatineau,Canada,45.476545,-75.701272
515,930000,Dra'a,Syria,32.625278,36.106111
516,928592,Freetown,Sierra Leone,"8,478","-13,242"
517,920610,Xinyi,China,22.3563341,110.9407826
518,918889,Medina,Saudi-Arabia,24.466667,39.6
519,915000,Tanger,Morocco,35.759465,-5.833954
520,908200,Weihai,China,37.5122216,122.1152445
521,907598,Haimen,China,31.894673,121.1732307
522,904165,Soweto,South Africa,-26.248538,27.854032
523,899000,Safi,Morocco,32.300815,-9.227203
524,898530,Yongin,Republic of Korea,37.241086,127.177554
525,897135,Amroha,India,28.904354,78.467343
526,896057,Kaifeng,China,34.7961106,114.3472038
527,894440,Mombasa,Kenya,-4.02,39.72
528,889810,Moradabad,India,28.831593,78.778276
529,887069,Đà Nẵng,Vietnam,16.054407,108.202167
530,885400,Austin,USA,30.3072,-97.756
531,884456,Bishkek,Kyrgyzstan,42.874722,74.612222
532,883800,Shaoxing,China,29.9992425,120.576854
533,881711,Jiamusi,China,46.8087794,130.3734556
534,878402,Duque de Caxias,Brazil,-22.667492,-43.265514
535,877682,Suihua,China,46.6420316,126.9870127
536,876824,Gurgaon,India,28.459497,77.026638
537,872662,Bucheon,Republic of Korea,37.503414,126.766031
538,872575,Aligarh,India,27.9,78.08
539,872478,Solapur,India,17.659919,75.906391
540,868066,Langfang,China,39.516667,116.683333
541,866171,Cebu City,Philippines,10.315699,123.885437
542,865356,Jiaozuo,China,35.2075729,113.2533977
543,865263,Turin,Italy,45.070312,7.686856
544,865000,Al-Raqqah,Syria,35.959411,38.998105
545,863536,Kigali,Rwanda,-1.96,30.13
546,863495,Ranchi,India,23.3441,85.309562
547,862196,Jalandhar,India,31.326015,75.576183
548,862044,Natal,Brazil,-5.855925,-35.205677
549,861181,Krasnodar,Russia,45.033333,38.966667
550,858437,Tegucigalpa,Honduras,14.0833,-87.2167
551,852807,Arequipa,Peru,-16.409047,-71.537451
552,851405,Kermanshah,Iran,34.314167,47.065
553,234369,Tanga,Tanzania,-5.1,39.12
554,850726,Marseille,France,43.296482,5.36978
555,846915,Tiruchirappalli,India,10.790483,78.704673
556,846871,NOUAKCHOTT,Mauritania,18.1,-15.95
557,843460,Diyarbakır,Turkey,37.91441,40.230629
558,843429,Mersin,Turkey,36.804157,34.624011
559,843393,Indianapolis,USA,39.7767,-86.1459
560,843120,Campo Grande,Brazil,-20.367831,-54.530867
561,843000,Zhoushan,China,29.976743,122.235443
562,842583,Jacksonville,USA,30.337,-81.6613
563,840600,Teresina,Brazil,-5.089838,-42.817543
564,838321,Saratov,Russia,51.533333,46.016667
565,837737,Bhubaneswar,India,20.296059,85.82454
566,837442,San Francisco,USA,37.7751,-122.4193
567,836383,Yibin,China,28.55938395,104.77726347
568,835361,LA PAZ,Bolivia,-16.5,-68.15
569,835333,Sakai,Japan,34.581694,135.468963
570,834881,Denpasar,Indonesia,-8.65,115.216667
571,831038,Salem,India,11.664325,78.146014
572,822553,Columbus,USA,39.9848,-82.985
573,820243,Malang,Indonesia,-7.983908,112.621394
574,819429,Warangal,India,17.968901,79.594054
575,814655,Mira-Bhayandar,India,19.295233,72.85439
576,813053,Niigata,Japan,37.912027,139.061883
577,811490,Khulna,Bangladesh,22.8216956,89.5529444
578,811489,São Bernardo do Campo,Brazil,-23.688821,-46.557537
579,811431,Hamamatsu,Japan,34.711849,137.723736
580,809232,Chihuahua,Mexico,28.636218,-106.094147
581,809112,JERUSALEM,Israel,31.768319,35.21371
582,807129,Zamboanga City,Philippines,6.907287,122.068753
583,806177,Nova Iguaçu,Brazil,-22.742341,-43.459682
584,805304,Valencia,Spain,39.469908,-0.376288
585,803329,Oran,Algeria,35.697654,-0.633738
586,801542,Amsterdam,Netherlands,52.370216,4.895168
587,800970,Songkhla,Thailand,7.1756,100.614347
588,798364,Dandong,China,40.1309157,124.383628
589,797739,Nonthaburi,Thailand,13.862113,100.514353
590,796947,Doha,Qatar,25.29161,51.530437
591,794431,Islamabad,Pakistan,33.729388,73.093146
592,792862,Charlotte,USA,35.2087,-80.8307
593,792727,Fort Worth,USA,32.7795,-97.3463
594,792211,Naucalpan,Mexico,19.465477,-99.227294
595,790057,Bandar Lampung,Indonesia,-5.447885,105.265288
596,790017,Zagreb,Croatia,45.815011,15.981919
597,788000,Meknès,Morocco,33.895,-5.554722
598,787177,Panzhihua,China,26.5847815,101.7206643
599,784398,Biên Hòa,Vietnam,10.957413,106.842687
600,783032,Vientiane,Laos,17.966667,102.6
601,780738,João Pessoa,Brazil,-7.694613,-35.667409
602,780514,Anqing,China,30.5119718,117.0429659
603,779975,Puente Alto,Chile,-33.616667,-70.566667
604,777682,Huludao,China,40.7515443,120.8404789
605,777615,Mérida,Mexico,20.912084,-89.712789
606,776873,Trujillo,Peru,-8.109052,-79.021534
607,776093,Pointe Noire,Republic of the Congo,-4.78,11.88
608,775255,Port Elizabeth,South Africa,-33.958056,25.6
609,773496,Souleimaniye,Iraq,35.55,45.433333
610,768551,Hamhung,Democratic People's Republic of Korea,39.916667,127.533333
611,766736,Zaporozhye,Ukraine,47.8388,35.139567
612,766000,Ilorin,Nigeria,"8,479","4,570"
613,766000,Taza,Morocco,34.216667,-4.016667
614,764571,Huangshi,China,29.9185999,115.015457634
615,759894,Quetta,Pakistan,30.182971,66.998734
616,759000,Nador,Morocco,35.166667,-2.933333
617,757933,Santiago de los Caballeros,Dominican Republic,19.466667,-70.7
618,757611,Kraków,Poland,50.06465,19.94498
619,757175,Pathum Thani,Thailand,14.020839,100.525028
620,756700,Dongying,China,37.4320418,118.6543828
621,756143,DUSHANBE,Tajikistan,38.536667,68.78
622,756000,Tartous,Syria,34.883333,35.883333
623,753194,Shaoyang,China,27.231505,111.4524988
624,752490,Thiruvananthapuram,India,8.524139,76.936638
625,752349,Johannesburg,South Africa,-26.204103,28.047305
626,751500,Leeds,United Kingdom,53.800755,-1.549077
627,751225,Lvov,Ukraine,49.839683,24.029717
628,744321,Dammam,Saudi-Arabia,26.396773,50.195948
629,743715,MRT,Mauritania,"18,090","-15,980"
630,741531,Ma'anshan,China,31.696178,118.5227702
631,740925,Qujing,China,25.4929058,103.8001449
632,740369,La Plata,Argentina,-34.92125,-57.954333
633,738128,Yingkou,China,40.6772444,122.2341814
634,735241,Riga,Latvia,56.949649,24.105186
635,728892,Łódź,Poland,51.759249,19.455983
636,727511,Arusha,Tanzania,-3.37,36.73
637,727500,Samarinda,Indonesia,-0.502106,117.153706
638,726649,Kananga,Democratic Republic of the Congo,-5.9,22.48
639,726075,CHIŞINĂU (KISHINEV),Republic of Moldova,47,28.916667
640,722772,San Luis Potosí,Mexico,22.55107,-99.084519
641,722250,Aguascalientes,Mexico,21.881986,-102.291668
642,720979,Athens,Greece,37.983917,23.72936
643,719363,Tolyatti,Russia,53.5086,49.419834
644,717618,Pekanbaru,Indonesia,0.533505,101.447404
645,715313,Ansan,Republic of Korea,37.361864,126.873291
646,715061,Hermosillo,Mexico,29.078336,-110.95273
647,713340,Bulawayo,Zimbabwe,-20.132507,28.626479
648,711329,Bhiwandi,India,19.281255,73.048291
649,710944,Shizuoka,Japan,34.97171,138.38884
650,709700,Binzhou,China,37.3825083,118.0163414
651,709671,Saltillo,Mexico,25.424175,-100.998635
652,707613,Santo André,Brazil,-23.643135,-46.537069
653,706342,Sagamihara,Japan,35.580536,139.369488
654,705649,Zhangzhou,China,24.5174597,117.6586363
655,705399,Bukavu,Democratic Republic of the Congo,-2.52,28.89
656,704114,Seville,Spain,37.389092,-5.984459
657,703969,Duschanbe,Tajikistan,38.548686,68.815559
658,703345,Saharanpur,India,29.967079,77.551017
659,703123,Khon Kaen,Thailand,16.441936,102.835992
660,702400,Djiboutibouti,Djibouti,11.8,42.43
661,702330,TUNIS,Tunisia,36.806495,10.181532
662,701753,Makhachkala,Russia,42.966667,47.5
663,701350,Frankfurt am Main,Germany,50.1106529,8.6820934
664,701293,Okayama,Japan,34.666369,133.918588
665,696946,Quebec City,Canada,46.803283,-71.242796
666,695793,Taguig,Philippines,14.517618,121.050864
667,693271,Osasco,Brazil,-23.555382,-46.794054
668,692348,PRETORIA,South Africa,-25.746111,28.188056
669,692136,Touba Mosquee,Senegal,"14,865","-15,882"
670,689775,Mexicali,Mexico,32.656793,-115.41553
671,688876,Xingtai,China,37.063056,114.494167
672,688701,Detroit,USA,42.383,-83.1022
673,686848,Fuxin,China,42.0124949,121.64872
674,686722,Palermo,Italy,38.115688,13.361267
675,686306,Barnaul,Russia,53.354779,83.769783
676,684322,Adan,Yemen,12.8,45.033333
677,681036,São José dos Campos,Brazil,-23.498985,-46.696339
678,681000,Jos,Nigeria,"9,870","8,867"
679,680943,Jaboatão dos Guararapes,Brazil,-8.118745,-34.990647
680,679600,Dezhou,China,37.4486676,116.305416
681,677741,Antipolo,Philippines,14.625483,121.124485
682,677000,Zaria,Nigeria,"11,106","7,727"
683,676858,Yangjiang,China,21.8526328,111.95935
684,676464,Panjin,China,41.1169056,122.0655098
685,675773,Culiacán,Mexico,24.807052,-107.419628
686,674433,El Paso,USA,31.8484,-106.427
687,674000,Maiduguri,Nigeria,"11,829","13,163"
688,673616,Guadalupe,Mexico,25.592172,-99.996195
689,673479,Acapulco,Mexico,16.853751,-99.905728
690,671551,Winnipeg,Canada,49.899754,-97.137494
691,670580,Hamilton,Canada,43.250021,-79.866091
692,670348,Kumamoto,Japan,32.790065,130.689401
693,670000,Rabat,Morocco,33.97159,-6.849813
694,669773,Pasig,Philippines,14.576377,121.08511
695,669242,Durban,South Africa,-29.85868,31.02184
696,669021,LILONGWE,Malawi,-13.983333,33.783333
697,668085,Beihai,China,21.4799081,109.1068061
698,603066,Serrekunda,Gambia,"13,479","-16,675"
699,667929,Chongjin,Democratic People's Republic of Korea,41.8,129.783333
700,667499,Orumiyeh,Iran,37.555278,45.0725
701,662852,Cheongju,Republic of Korea,36.642434,127.489032
702,661444,Blantyre City,Malawi,-15.786111,35.005833
703,658059,Ribeirão Preto,Brazil,-21.161973,-47.833119
704,657760,Kryvy Rig,Ukraine,47.882061,33.381626
705,655738,Liaoyang,China,41.274332,123.1696235
706,655631,Puyang,China,35.7670801,115.0272854
707,654681,Uberlândia,Brazil,-18.915889,-48.273884
708,653450,Memphis,USA,35.1035,-89.9785
709,653410,Tlalnepantla,Mexico,19.534528,-99.190736
710,653337,Bulawayo,Zimbabwe,-20.132507,28.626479
711,653075,Nakhon Ratchasima,Thailand,14.9799,102.097769
712,652405,Seattle,USA,47.6205,-122.3509
713,651382,Guntur,India,16.306652,80.43654
714,650000,Mar del Plata,Argentina,-37.979858,-57.589794
715,649495,Denver,USA,39.7618,-104.8806
716,647504,Jeonju,Republic of Korea,35.824224,127.147953
717,647100,COLOMBO,Sri Lanka,6.927079,79.861243
718,646801,Amravati,India,20.937424,77.779551
719,646449,Washington,USA,38.9041,-77.0171
720,645966,Boston,USA,42.332,-71.0202
721,644799,Tyumen,Russia,57.161298,65.525017
722,644406,Bikaner,India,28.01,73.3
723,644045,Zhaoqing,China,23.0515551,112.4728451
724,643476,Contagem,Brazil,-19.955592,-44.025707
725,642653,Ganzhou,China,25.8629902,114.9403044
726,642381,Noida,India,28.535516,77.391026
727,639951,Rasht,Iran,37.263332,49.575763
728,639311,ASTANA,Kazakhstan,51.160523,71.470356
729,637637,Ulyanovsk,Russia,54.316667,48.366667
730,637617,Yulin,China,38.2951481,109.7475767
731,637302,Cúcuta,Colombia,7.90531,-72.50509
732,637187,Sorocaba,Brazil,-23.473019,-47.419685
733,635464,Tasikmalaya,Indonesia,-7.333333,108.2
734,634464,Nashville,USA,36.1718,-86.785
735,631898,Goma,Democratic Republic of the Congo,-1.66,29.22
736,631182,Izhevsk,Russia,56.833333,53.183333
737,630131,Wrocław,Poland,51.107885,17.038538
738,629824,Bengasi,Libya,32.116667,20.066667
739,629659,Jamshedpur,India,22.804567,86.202875
740,629609,Eskişehir,Turkey,39.776667,30.520556
741,628306,Cancún,Mexico,19.181739,-88.479138
742,626495,Querétaro,Mexico,20.591428,-100.394956
743,625697,Bhilai Nagar,India,21.193848,81.350942
744,625481,Banjarmasin,Indonesia,-3.316694,114.59011
745,624281,Vladivostok,Russia,43.133333,131.9
746,623766,Aracaju,Brazil,-10.914891,-37.078221
747,622104,Baltimore,USA,39.3002,-76.6105
748,620419,Zaragoza,Spain,41.648823,-0.889085
749,620318,Kirkuk,Iraq,35.466667,44.316667
750,618683,Oslo,Norway,59.913869,10.752245
751,618376,Cochabamba,Bolivia,-17.383333,-66.166667
752,617277,Jingjiang,China,32.0165721,120.2693683
753,614170,Anyang,Republic of Korea,37.401929,126.922647
754,614074,Helsinki,Finland,60.173324,24.941025
755,612383,Chimalhuacán,Mexico,19.432608,-99.133208
756,612000,Feira de Santana,Brazil,-12.185441,-38.965205
757,611706,Libreville,Gabon,0.41,9.47
758,610613,Oklahoma City,USA,35.4671,-97.5137
759,610307,Genoa,Italy,44.40565,8.946256
760,609893,Louisville,USA,38.1781,-85.6667
761,609456,Portland,USA,45.537,-122.65
762,608836,Torreón,Mexico,25.552053,-103.370556
763,606007,Cuttack,India,20.462521,85.88299
764,605196,Kagoshima,Japan,31.601431,130.563015
765,605000,Agadir,Morocco,30.427755,-9.598107
766,604297,Stuttgart,Germany,48.7784931,9.1800456
767,603488,Las Vegas,USA,36.2277,-115.264
768,602088,Cagayan de Oro,Philippines,8.454236,124.631898
769,601993,Irkutsk,Russia,52.286974,104.305018
770,601574,Kochi,India,9.931233,76.267304
771,600000,Enugu,Nigeria,"6,436","7,503"
772,599164,Milwaukee,USA,43.0633,-87.9667
773,598686,Düsseldorf,Germany,51.2251964,6.7737511
774,598470,Glasgow,United Kingdom,55.864237,-4.251806
775,598000,Tétouan,Morocco,35.566667,-5.366667
776,597511,Morelia,Mexico,19.566519,-101.706829
777,597161,Yaroslavl,Russia,57.626074,39.884471
778,596165,Zhangzhou,China,24.5174597,117.6586363
779,596155,Bujumbura,Burundi,-3.39,29.38
780,593768,Bhavnagar,India,21.764473,72.15193
781,592389,Gold Coast-Tweed Heads,Australia,-27.923641,153.207254
782,592381,Jiujiang,China,29.7076799,115.9967851
783,592291,KINGSTON,Jamaica,17.983333,-76.8
784,592000,Osogbo,Nigeria,"7,791","4,536"
785,589596,Khabarovsk,Russia,48.502731,135.06626
786,589466,Reynosa,Mexico,26.098218,-98.285327
787,588995,Chiclayo,Peru,-6.776597,-79.844298
788,588935,Port Said,Egypt,31.265289,32.301866
789,588533,Bouake,Côte d'Ivoire,"7,706","-5,020"
790,588126,Parañaque,Philippines,14.47931,121.019823
791,586762,Funabashi,Japan,35.701735,139.985218
792,582774,Soledad,Colombia,10.938773,-74.76895
793,580151,Namyangju,Republic of Korea,37.636003,127.216528
794,579000,Skhirate-Témara,Morocco,33.927835,-6.905182
795,578420,Dehradun,India,30.316495,78.032192
796,577785,Serang,Indonesia,-6.12,106.150278
797,576203,Bahawalpur,Pakistan,29.395722,71.683333
798,575944,Dortmund,Germany,51.5142273,7.4652789
799,575942,Tlaquepaque,Mexico,20.639285,-103.310835
800,575817,Dasmariñas,Philippines,14.299018,120.95897
801,575512,Mwanza,Tanzania,-2.54,32.94
802,575480,Cuiabá,Brazil,-15.627144,-56.061933
803,575356,Valenzuela,Philippines,14.701056,120.983023
804,574148,Cheonan,Republic of Korea,36.816667,127.166667
805,573003,Poznań,Poland,52.406374,16.925168
806,571041,Orenburg,Russia,51.766648,55.100454
807,569884,Essen,Germany,51.4572062,7.0114963
808,567900,Macao,Macao,22.207659,113.549951
809,567367,Hachiōji,Japan,35.655641,139.338968
810,566996,Shimkent,Kazakhstan,42.341685,69.590101
811,566200,Cimahi,Indonesia,-6.899541,107.533869
812,565000,Tomsk,Russia,56.50104,84.992451
813,564806,Bobo-Dioulasso,Burkina Faso,"11,175","-4,299"
814,564491,Asansol,India,23.68,86.99
815,562321,Chuzhou,China,32.2427198,118.3292813
816,560725,Zahedan,Iran,29.496389,60.862778
817,557579,Balikpapan,Indonesia,-1.269767,116.836171
818,557333,MB Johor Bahru,Malaysia,1.4685,103.75416
819,556495,Albuquerque,USA,35.1056,-106.6474
820,555000,Inezgane ait Melloul,Morocco,30.352312,-9.551496
821,554601,Joinville,Brazil,-26.304387,-48.851032
822,554547,Sargodha,Pakistan,32.083741,72.67186
823,552883,Kawaguchi,Japan,35.807093,139.709945
824,552573,Las Piñas,Philippines,14.444546,120.993874
825,552503,Macau,China,22.1919514,113.5381216
826,551000,Khemisset,Morocco,33.816667,-6.066667
827,550710,Juiz de Fora,Brazil,-21.74192,-43.374399
828,550564,Nanded-Waghala,India,19.149722,77.333056
829,549839,Gothenburg,Sweden,57.70887,11.97456
830,549383,Novokuznetsk,Russia,53.759594,87.12157
831,549163,San Miguel de Tucumán,Argentina,-26.808285,-65.21759
832,548547,Bremen,Germany,53.0758099,8.80717
833,543669,Nakuru,Kenya,-0.25,36.19
834,543003,Londrina,Brazil,-23.308817,-51.176417
835,542876,Ibagué,Colombia,4.655785,-75.330505
836,542580,Ajmer,India,26.449895,74.639916
837,542017,Mawlamyine,Myanmar,"16,49","97,63"
838,540318,Vilnius,Lithuania,54.687156,25.279651
839,539960,Rotterdam,Netherlands,51.92442,4.477733
840,538188,Kemerovo,Russia,55.345023,86.062304
841,538086,General Santos,Philippines,6.116386,125.171618
842,537102,Tuxtla Gutiérrez,Mexico,16.752711,-93.116351
843,536793,Cangzhou,China,38.3042796,116.8511597
844,536271,Skopje,Macedonia,41.997346,21.427996
845,536170,Himeji,Japan,34.824797,134.709449
846,535686,Málaga,Spain,36.721261,-4.421266
847,535657,Aksu,China,41.0690479,81.4367621162
848,535303,Ciudad de Salta,Argentina,-24.782932,-65.412155
849,534441,Kerman,Iran,30.283938,57.083363
850,532132,Gaza,Palestine,31.522561,34.453593
851,531997,Samsun,Turkey,41.279082,36.336744
852,531562,Leipzig,Germany,51.3391827,12.3810549
853,531000,Ikorodu,Nigeria,"6,634","3,568"
854,530754,Dresden,Germany,51.0493286,13.7381437
855,529308,Jamnagar,India,22.470702,70.05773
856,529055,Suez,Egypt,29.999431,32.514644
857,527612,Dublin,Ireland,53.349805,-6.26031
858,527000,ABU DHABI,United Arab Emirates,24.466667,54.366667
859,526919,Ryazan,Russia,54.609542,39.712586
860,526827,Bucaramanga,Colombia,7.13011,-73.12569
861,526363,Astrakhan,Russia,46.358805,48.059935
862,526116,Tucson,USA,32.1543,-110.8711
863,525794,Hamadan,Iran,34.8,48.516667
864,524958,Nyala,Sudan,12.05,24.88
865,521955,Maturín,Venezuela,9.75,-63.183
866,521273,Taif,Saudi-Arabia,21.433333,40.35
867,520216,Bacoor,Philippines,14.412993,120.973679
868,519948,Penza,Russia,53.2,45.016667
869,518736,San Pedro Sula,Honduras,15.5,-88.033333
870,518709,Durango,Mexico,24.013998,-104.677679
871,518386,Hanover,Germany,52.3744779,9.7385532
872,517831,Naberezhnye Tchelny,Russia,55.718505,52.372104
873,517543,Kitwe,Zambia,-12.823195,28.217574
874,517505,Hwaseong,Republic of Korea,37.128726,126.931317
875,517322,Pohang,Republic of Korea,36.019018,129.343481
876,515833,El-Mahalla El-Kubra,Egypt,30.978129,31.162448
877,515215,Ujjain,India,23.179301,75.78491
878,515068,Matsuyama,Japan,33.829016,132.704079
879,513862,Sangli,India,16.867,74.567
880,513000,Warri,Nigeria,"5,546","5,772"
881,513000,Oujda,Morocco,34.686667,-1.911389
882,512296,Loni,India,19.582706,74.470147
883,511820,Bacolod,Philippines,10.640739,122.968956
884,511323,Aparecida de Goiânia,Brazil,-16.781125,-49.326441
885,509924,Fresno,USA,36.7827,-119.7945
886,509157,Higashiōsaka,Japan,34.679268,135.600932
887,508585,Lipetsk,Russia,52.6122,39.598123
888,508209,Lisbon,Portugal,38.722252,-9.139337
889,508000,Khouribga,Morocco,32.886023,-6.920865
890,507833,Utsunomiya,Japan,36.55505,139.882809
891,507726,Gimhae,Republic of Korea,35.228545,128.889352
892,507293,Jhansi,India,25.448426,78.568459
893,505959,Pondicherry,India,11.91386,79.814472
894,505434,MB Ipoh,Malaysia,3.153255,101.70763
895,505346,Kirov,Russia,58.603532,49.666798
896,505258,Nellore,India,14.442599,79.986456
897,505139,Zhoukou,China,33.6306299,114.6423617
898,503690,Jammu,India,32.726602,74.857026
899,502400,Nadjaf,Iraq,32,44.33
900,501843,Pontianak,Indonesia,0,109.333333
901,501719,Gomel,Belarus,52.441176,30.987846
902,500000,Ciudad de Santa Fe,Argentina,-31.632389,-60.699459
903,499776,Ananindeua,Brazil,-1.337455,-48.358848
904,499337,Surakarta,Indonesia,-7.566667,110.816667
905,498876,Nuremberg,Germany,49.4538723,11.0772978
906,498643,Denizli,Turkey,37.77652,29.08639
907,498269,Manchester,United Kingdom,53.480759,-2.242631
908,498111,Şanlıurfa,Turkey,37.159149,38.796909
909,498058,Xuchang,China,34.0316195,113.8237291
910,496656,Tula,Russia,54.204836,37.618492
911,495470,Niterói,Brazil,-22.884104,-43.126742
912,495419,Garoua,Cameroon,9.33,13.39
913,494013,Porto Velho,Brazil,-8.752264,-63.868385
914,491693,Mykolaiv,Ukraine,46.975033,31.994583
915,491500,Kandahar,Afghanistan,31.6119,65.6811
916,491000,Larache,Morocco,35.183333,-6.15
917,489333,Toluca,Mexico,19.432608,-99.133208
918,489232,Hegang,China,47.3355856,130.2836718
919,489160,Ciudad López Mateos,Mexico,19.560326,-99.246219
920,488995,Soacha,Colombia,4.577168,-74.217389
921,488292,Belagavi,India,15.849695,74.497674
922,488000,Al-Sharjah,United Arab Emirates,25.336327,55.397763
923,486855,Duisburg,Germany,51.44620175,6.74207596814
924,486152,Yazd,Iran,31.897423,54.356856
925,485217,Tshikapa,Democratic Republic of the Congo,-6.43,20.78
926,484874,Raurkela,India,22.260423,84.853584
927,484785,Mangaluru,India,12.914142,74.855957
928,484696,Sialkot,Pakistan,32.492477,74.53104
929,484573,Cuautitlán Izcalli,Mexico,19.432608,-99.133208
930,484344,Lyon,France,45.764043,4.835659
931,484212,Arak,Iran,34.12516,49.712727
932,483057,Udon Thani,Thailand,17.413841,102.787233
933,482632,Ardabil,Iran,38.25,48.283333
934,480648,Campos dos Goytacazes,Brazil,-21.833056,-41.260082
935,480263,Mariupol,Ukraine,47.097133,37.543367
936,479686,Sacramento,USA,38.5666,-121.4686
937,479386,Belford Roxo,Brazil,-22.703671,-43.393013
938,479186,Samut Sakhon,Thailand,13.547522,100.274396
939,477603,Matsudo,Japan,35.78305,139.898474
940,477056,Nishinomiya,Japan,34.738763,135.347864
941,476780,Porto-Novo,Benin,"6,475","2,625"
942,476719,Makati,Philippines,14.554729,121.024445
943,476428,Serra,Brazil,-20.212816,-40.237535
944,476000,Sokoto,Nigeria,"13,057","5,249"
945,475630,Den Haag,Netherlands,52.070498,4.3007
946,474838,Tirunelveli,India,8.73,77.7
947,473189,Cheboksary,Russia,56.15,47.233333
948,472452,Kurashiki,Japan,34.602065,133.765676
949,471006,Malegaon,India,20.55475,74.510029
950,470223,Caxias do Sul,Brazil,-29.186449,-51.167149
951,470149,Ichikawa,Japan,35.734298,139.906664
952,469428,Long Beach,USA,33.8091,-118.1553
953,469066,Santa Marta,Colombia,11.223969,-74.186581
954,469017,Liverpool,United Kingdom,53.408371,-2.991573
955,467875,Nanping,China,26.6417374,118.173639
956,467267,Ōita,Japan,33.221163,131.617791
957,467157,Ciudad Apodaca,Mexico,25.592172,-99.996195
958,467007,Kansas City,USA,39.1252,-94.5511
959,465989,Barcelona,Venezuela,10.144569,-64.67768
960,465698,Karaganda,Kazakhstan,49.804684,73.109383
961,465690,Vila Velha,Brazil,-20.329363,-40.292161
962,465375,al-Mansura,Egypt,31.040948,31.37847
963,465000,Akure,Nigeria,"7,245","5,186"
964,464719,Pereira,Colombia,4.805473,-75.72578
965,463454,Gaya,India,24.795452,84.999431
966,463121,Villavicencio,Colombia,4.145343,-73.641158
967,461524,Florianópolis,Brazil,-27.577432,-48.525895
968,461459,Lugansk,Ukraine,48.574041,39.307815
969,461368,Fukuyama,Japan,34.489327,133.361432
970,461202,Amagasaki,Japan,34.718663,135.417305
971,460711,São João de Meriti,Brazil,-22.766294,-43.362462
972,460524,Gdańsk,Poland,54.352025,18.646638
973,460000,Abeokuta,Nigeria,"7,164","3,363"
974,459941,Muntinlupa,Philippines,14.408133,121.041467
975,459440,Luxor,Egypt,25.687243,32.639636
976,458074,Bissau,Guinea-Bissau,"11,863","-15,614"
977,457749,Antwerp,Belgium,51.219448,4.402464
978,457587,Mesa,USA,33.4019,-111.7174
979,455783,Chipata,Zambia,-13.64451,32.6447
980,455732,Chiang Rai,Thailand,19.907166,99.830955
981,455623,Al-Rayyan,Qatar,25.208979,51.095836
982,455595,Kanazawa,Japan,36.561049,136.656574
983,454553,San Jose del Monte,Philippines,14.813889,121.045278
984,453046,Santo Domingo North - Santo Domingo Norte,Dominican Republic,18.59674,-69.907389
985,452472,Chaozhou,China,23.6566146,116.6205482
986,452134,Mixco,Guatemala,14.633333,-90.6
987,451735,Udaipur,India,24.58,73.68
988,451400,Lishui,China,28.18436815,119.593743726
989,451246,Ndola,Zambia,-12.990641,28.649814
990,449815,Matamoros,Mexico,25.88139,-97.508444
991,449047,Kerbela,Iraq,32.616667,44.033333
992,448792,Nagasaki,Japan,32.752644,129.870829
993,448776,Mauá,Brazil,-23.646553,-46.437578
994,448624,Edinburgh,United Kingdom,55.953252,-3.188267
995,448479,Virginia Beach,USA,36.7793,-76.024
996,448280,Bamenda,Cameroon,5.96,10.16
997,448028,Constantine,Algeria,36.35,6.6
998,447841,Atlanta,USA,33.7629,-84.4227
999,446757,Macapá,Brazil,0.070467,-51.135932
1000,445939,Rayong,Thailand,12.707434,101.147352
1001,444681,Kitchener,Canada,43.45,-80.483333
1002,444543,Tiruppur,India,11.108524,77.341066
1003,444325,Zanzibar,Tanzania,-6.14,39.23
1004,443273,San Nicolás de los Garza,Mexico,25.749347,-100.286897
1005,441802,Toulouse,France,43.604652,1.444209
1006,441407,Sochi,Russia,43.585278,39.720278
1007,441351,Tabuk,Saudi-Arabia,28.383333,36.583333
1008,439886,Colorado Springs,USA,38.8673,-104.7607
1009,439866,Sheffield,United Kingdom,53.381129,-1.470085
1010,438577,Bello,Colombia,6.335499,-75.560179
1011,438354,São José do Rio Preto,Brazil,-20.829998,-49.396133
1012,437456,Kaliningrad (Kaliningradskaya oblast),Russia,54.716667,20.516667
1013,437012,Jambi,Indonesia,-1.59,103.61
1014,436300,Herat,Afghanistan,34.341944,62.203056
1015,435751,Bandar-e-Abbas,Iran,27.175479,56.258232
1016,435128,Davanagere,India,14.466344,75.92384
1017,434353,Omaha,USA,41.2647,-96.0419
1018,433565,Santos,Brazil,-23.981846,-46.30982
1019,433242,Valledupar,Colombia,10.451096,-73.261411
1020,432097,Kozhikode,India,11.258753,75.78041
1021,431998,Maseru,Lesotho,-29.31,27.48
1022,431746,Raleigh,USA,35.8302,-78.6414
1023,431471,Santiago de Cuba,Cuba,20.01693,-75.830154
1024,431061,Bratislava,Slovakia,48.145892,17.107137
1025,430987,Bryansk,Russia,53.263531,34.41611
1026,430198,Uijeongbu,Republic of Korea,37.738424,127.045998
1027,430025,Sukkur,Pakistan,27.706604,68.848197
1028,429632,Tanta,Egypt,30.786509,31.000376
1029,428940,Kalasin,Thailand,16.434167,103.509167
1030,428890,Pasto,Colombia,1.231824,-77.293192
1031,428579,Montería,Colombia,8.886111,-75.681622
1032,428323,Veracruz,Mexico,19.200512,-96.138038
1033,428075,Pyeongtaek,Republic of Korea,36.99047,127.085624
1034,427367,Iquitos,Peru,-3.743673,-73.251633
1035,427146,Akola,India,20.7,77
1036,425950,Kursk,Russia,51.709196,36.156224
1037,425038,Matadi,Democratic Republic of the Congo,-5.84,13.46
1038,424920,Kurnool,India,15.828126,78.037279
1039,424755,Xalapa,Mexico,19.173773,-96.134224
1040,424662,Matola,Mozambique,-25.966667,32.466667
1041,424619,Iloilo City,Philippines,10.72015,122.562106
1042,424150,Marikina,Philippines,14.65073,121.102855
1043,424124,Piura,Peru,-5.2,-80.633333
1044,423853,Jeju,Republic of Korea,33.499621,126.531188
1045,421397,Yokosuka,Japan,35.284119,139.655899
1046,421116,Toyama,Japan,36.701226,137.21319
1047,420850,Newcastle-Maitland,Australia,-32.733664,151.557668
1048,420556,Bristol,United Kingdom,51.454513,-2.58791
1049,420286,Toyota,Japan,35.07514,137.157918
1050,419839,Mogi das Cruzes,Brazil,-23.521783,-46.193323
1051,418557,Takamatsu,Japan,34.218664,134.01882
1052,418495,Tirana,Albania,41.327546,19.818698
1053,417650,Miami,USA,25.7752,-80.2086
1054,416464,Cilegon,Indonesia,-5.995739,106.03301
1055,414977,Nassiriya,Iraq,31.05,46.266667
1056,413934,Bokaro Steel City,India,23.669296,86.151112
1057,413893,Gumi,Republic of Korea,36.119485,128.344573
1058,413850,Ulan-Ude,Russia,51.823879,107.607338
1059,413786,Machida,Japan,35.551392,139.443463
1060,413616,Rajahmundry,India,17.000538,81.804034
1061,413294,Szczecin,Poland,53.428544,14.552812
1062,413006,Cuzco,Peru,-13.53195,-71.967463
1063,412779,Gifu,Japan,35.409514,136.756521
1064,412252,Kahramanmaraş,Turkey,37.583333,36.933333
1065,412049,Canberra-Queanbeyan,Australia,-35.354918,149.231251
1066,412003,Betim,Brazil,-19.966123,-44.193736
1067,412000,Bauchi,Nigeria,"10,306","9,824"
1068,411954,Ubon Ratchathani,Thailand,15.228686,104.856422
1069,411800,Tel Aviv-Yafo,Israel,32.0853,34.781768
1070,410984,Surat Thani,Thailand,9.138239,99.321748
1071,410733,Magnitogorsk,Russia,53.412943,59.001623
1072,409644,Ballari,India,15.139393,76.921443
1073,409613,Diadema,Brazil,-23.681276,-46.626577
1074,408952,Ivanovo,Russia,57.005067,40.976645
1075,408759,Tonalá,Mexico,20.659538,-103.349438
1076,408560,Stavropol,Russia,45.05,41.983333
1077,407896,Tver,Russia,56.858721,35.917596
1078,406898,Port Sudanan,Sudan,19.62,37.23
1079,406253,Oakland,USA,37.7699,-122.2256
1080,406201,Hirakata,Japan,34.81748,135.6474
1081,405715,Manado,Indonesia,1.491701,124.842843
1082,405385,Pietermaritzburg,South Africa,-29.600607,30.379412
1083,405337,Brno,Czech Republic,49.19506,16.606837
1084,402912,Campina Grande,Brazil,-6.760711,-38.229127
1085,402843,Mataram,Indonesia,-8.587259,116.136131
1086,402646,Rajshahi,Bangladesh,24.3715513,88.5921038
1087,402628,Fujisawa,Japan,35.341239,139.484722
1088,402275,Zurich,Switzerland,47.36865,8.539183
1089,401705,Malatya,Turkey,38.35,38.3
1090,400891,Siheung,Republic of Korea,37.379888,126.803103
1091,400070,Minneapolis,USA,44.9633,-93.2683
1092,400000,Juba,Sudan,4.85,31.62
1093,399688,Agartala,India,23.831457,91.286778
1094,398138,Bhagalpur,India,25.25,87
1095,398121,Tulsa,USA,36.1279,-95.9023
1096,397965,Jundiaí,Brazil,-23.188971,-46.885808
1097,397368,Beira,Mozambique,-19.833333,34.85
1098,396795,Kashgar,China,39.4722799,75.9849761
1099,396193,Tallinn,Estonia,59.436961,24.753575
1100,395227,Zarqa,Jordan,31.751512,36.868079
1101,394961,Asyut,Egypt,27.178312,31.185926
1102,393167,Manizales,Colombia,5.055721,-75.486043
1103,392869,Pasay,Philippines,14.537752,121.001379
1104,391698,Maringá,Brazil,-23.41349,-51.926339
1105,391297,Namangan,Uzbekistan,41.001111,71.668333
1106,390700,Makeyevka,Ukraine,48.044867,37.964
1107,390329,Villa Nueva,Guatemala,14.526944,-90.5875
1108,390212,Montes Claros,Brazil,-16.719879,-43.880173
1109,390113,Cleveland,USA,41.4781,-81.6795
1110,390073,Carapicuíba,Brazil,-23.526499,-46.830415
1111,389377,Calamba,Philippines,14.187671,121.125082
1112,389102,Islam Shahr (Qasemabad),Iran,35.544581,51.230246
1113,389036,Kashiwa,Japan,35.860416,139.973476
1114,388821,Olinda,Brazil,-8.016266,-34.85329
1115,388627,Yogyakarta,Indonesia,-7.797068,110.370527
1116,388412,Piracicaba,Brazil,-22.721267,-47.649851
1117,387269,Toyonaka,Japan,34.787562,135.461342
1118,386851,Zanjan,Iran,36.666667,48.483333
1119,386552,Wichita,USA,37.6907,-97.3427
1120,386435,Beni,Democratic Republic of the Congo,0.51,29.46
1121,384914,Antofagasta,Chile,-23.65,-70.4
1122,384504,Buenaventura,Colombia,3.819963,-76.992164
1123,382816,Paju,Republic of Korea,37.815223,126.792842
1124,382754,Latur,India,18.4,76.56
1125,382299,SAN JUAN,Puerto Rico,18.466334,-66.105722
1126,381598,Qazvin,Iran,36.266667,50
1127,381583,Mazatlán,Mexico,25.825701,-108.214302
1128,381474,Sevastopol,Ukraine,44.61665,33.525367
1129,132326,Kara,Togo,"9,551","1,186"
1130,380953,Ciudad Bolívar,Venezuela,8.268607,-62.753148
1131,380941,Irapuato,Mexico,20.678665,-101.354496
1132,379638,Vereeniging,South Africa,-26.673611,27.931944
1133,379577,Arlington,USA,32.7007,-97.1247
1134,379149,Larkana,Pakistan,27.563994,68.215131
1135,378915,Cariacica,Brazil,-20.33475,-40.422674
1136,378715,New Orleans,USA,30.0686,-89.939
1137,378422,Buraida,Saudi-Arabia,26.297724,43.976601
1138,378204,Nagano,Japan,36.658992,138.187705
1139,377888,Murcia,Spain,37.99224,-1.130654
1140,377045,Toyohashi,Japan,34.762811,137.381651
1141,376833,Takoradi,Ghana,"4,902","-1,759"
1142,376093,Dhule,India,20.90422,74.774898
1143,376000,Calabar,Nigeria,"4,991","8,340"
1144,375999,Buri Ram,Thailand,14.993002,103.102919
1145,375939,Ichinomiya,Japan,35.287784,136.808252
1146,375566,Klang,Malaysia,3.044917,101.445562
1147,374706,Cumaná,Venezuela,10.456389,-64.1675
1148,374011,Sheikhupura,Pakistan,31.716662,73.985024
1149,373987,Sanandaj,Iran,35.244426,47.008453
1150,373725,Nuevo Laredo,Mexico,25.842772,-97.495419
1151,372695,Chamis Muschait,Saudi-Arabia,18.300267,42.730218
1152,372463,Lampang,Thailand,18.28884,99.490874
1153,372175,Wakayama,Japan,34.232128,135.191134
1154,371380,Okazaki,Japan,34.941958,137.163974
1155,371217,Bologna,Italy,44.494887,11.342616
1156,369860,Vinnutsya,Ukraine,49.233083,28.468217
1157,369815,Belgorod,Russia,50.599713,36.598262
1158,369473,Miyazaki,Japan,31.915567,131.432034
1159,369151,Bydgoszcz,Poland,53.12348,18.008438
1160,368100,Mazar-i-Sharif,Afghanistan,36.7,67.116667
1161,367539,Maroua,Cameroon,10.59,14.32
1162,367419,Van,Turkey,38.494167,43.38
1163,367393,Nara,Japan,34.681215,135.819577
1164,367250,Erzurum,Turkey,39.908611,41.276944
1165,367000,Mohammedia,Morocco,33.683509,-7.384855
1166,366343,Benoni,South Africa,-26.188333,28.320556
1167,366341,Nampo,Democratic People's Republic of Korea,38.733333,125.4
1168,366191,London,Canada,42.98695,-81.243177
1169,366100,Christchurch,New Zealand,-43.532054,172.636225
1170,365736,Phra Nakhon Si Ayutthaya,Thailand,14.353213,100.56896
1171,365113,Roi Et,Thailand,16.05382,103.652004
1172,365101,Mogilev,Belarus,53.900716,30.33136
1173,364599,Chimbote,Peru,-9.063336,-78.589011
1174,364562,Bauru,Brazil,-22.33436,-49.05382
1175,363928,Rio Branco,Brazil,-9.981116,-67.845577
1176,363630,Bakersfield,USA,35.3212,-119.0183
1177,363210,Korba,India,22.35945,82.75006
1178,363127,Wonsan,Democratic People's Republic of Korea,39.1475,127.446111
1179,362185,Nizhny Tagil,Russia,57.921491,59.981619
1180,361991,Anápolis,Brazil,-16.318916,-48.945853
1181,361734,Bochum,Germany,51.482321,7.2187465
1182,361454,Nha Trang,Vietnam,12.238791,109.196749
1183,361366,Beirut,Lebanon,33.888629,35.495479
1184,361339,Samarkand,Uzbekistan,39.627012,66.974973
1185,361274,Kaunas,Lithuania,54.898521,23.903597
1186,361019,al-Obeid,Sudan,13.18,30.22
1187,360707,Vitebsk,Belarus,55.184806,30.201622
1188,360009,Bhilwara,India,25.321377,74.586953
1189,359341,Sinuiju,Democratic People's Republic of Korea,40.1,124.4
1190,358462,Palma de Mallorca,Spain,39.569601,2.65016
1191,358159,Phuket,Thailand,7.951933,98.338088
1192,358000,Igbidu,Nigeria,"6,047","8,082"
1193,357279,Huancayo,Peru,-12.068636,-75.210298
1194,357264,Arkhangelsk,Russia,64.547251,40.560155
1195,357000,Okenne,Nigeria,"7,568","6,248"
1196,356840,Chitungwiza,Zimbabwe,-18,31.05
1197,356771,Simferopol,Ukraine,44.952117,34.102417
1198,356352,Xico,Mexico,19.432608,-99.133208
1199,356118,Florence,Italy,43.76956,11.255814
1200,355953,Lublin,Poland,51.246454,22.568446
1201,355823,Brahmapur,India,19.314962,84.794091
1202,355618,Gwangmyeong,Republic of Korea,37.479413,126.854385
1203,355413,Barinas,Venezuela,8.768516,-70.421806
1204,354600,Suita,Japan,34.763177,135.52367
1205,354228,Takatsuki,Japan,34.851716,135.61768
1206,353950,Bilbao,Spain,43.263013,-2.934985
1207,353577,Villahermosa,Mexico,17.991508,-92.934441
1208,353337,Malabon,Philippines,14.6625,120.956667
1209,353040,São Vicente,Brazil,-23.96964,-46.37351
1210,352957,Tampa,USA,27.9701,-82.4797
1211,352907,Kikwit,Democratic Republic of the Congo,-5.04,18.81
1212,352565,Kuantan,Malaysia,3.816667,103.333333
1213,352444,General Escobedo,Mexico,25.592172,-99.996195
1214,352362,Likasi,Democratic Republic of the Congo,-10.99,26.74
1215,352204,Chitungwiza,Zimbabwe,-18,31.05
1216,352104,Vitória,Brazil,-20.275176,-40.303909
1217,351838,Muzaffarpur,India,26.120888,85.36472
1218,350905,Ahmednagar,India,19.095208,74.749592
1219,350511,Asahikawa,Japan,43.763781,142.358084
1220,350504,BLOEMFONTEIN,South Africa,-29.116667,26.216667
1221,350467,Lapu-Lapu,Philippines,10.266182,123.997295
1222,350000,Ogbomosho,Nigeria,"8,141","4,237"
1223,349947,Iwaki,Japan,37.058182,140.892126
1224,349543,Grodno,Belarus,53.672481,23.826693
1225,349526,Caucaia,Brazil,-3.70378,-38.701053
1226,349525,Vladimir,Russia,56.144596,40.417869
1227,349175,Santo Domingo West - Santo Domingo Oeste,Dominican Republic,18.526127,-69.883565
1228,349033,Kollam,India,8.893212,76.61414
1229,349000,Al-Sweida,Syria,32.593134,36.531071
1230,348920,Thessaloniki,Greece,40.640063,22.944419
1231,348739,Itaquaquecetuba,Brazil,-23.487306,-46.349325
1232,348216,Khoramabad,Iran,33.478498,48.362546
1233,348049,Mbeya,Tanzania,-8.92,33.48
1234,347884,Honolulu,USA,21.3259,-157.8453
1235,347809,Jhang,Pakistan,31.302853,72.328153
1236,347486,Taraz,Kazakhstan,42.898372,71.397989
1237,346922,Kovrov,Russia,56.366667,41.333333
1238,346854,Raghunathganj,India,24.466667,88.066667
1239,346788,San Miguelito,Panama,9.033,-79.5
1240,345876,Tanchon,Democratic People's Republic of Korea,40.458,128.911
1241,345821,Kisangani,Democratic Republic of the Congo,0.52,25.19
1242,345803,Aurora,USA,39.7082,-104.8235
1243,345012,Anaheim,USA,33.8555,-117.7601
1244,344803,Kathlehong,South Africa,-26.365126,28.15262
1245,344766,Kaluga,Russia,54.551858,36.285097
1246,344426,Kempton Park,South Africa,-26.1,28.233333
1247,343488,Wuppertal,Germany,51.264018,7.1780374
1248,343304,Nice,France,43.710173,7.261953
1249,342944,Kōchi,Japan,33.567239,133.543669
1250,342703,Annaba,Algeria,36.9,7.766667
1251,342328,Caruaru,Brazil,-8.281834,-36.015167
1252,342053,Pelotas,Brazil,-31.733491,-52.344492
1253,342000,Gombe,Nigeria,"10,286","11,157"
1254,341838,Takasaki,Japan,36.321626,139.003305
1255,340387,Celaya,Mexico,20.52164,-100.813602
1256,340199,Vitória da Conquista,Brazil,-14.849859,-40.853521
1257,340000,Buôn Ma Thuột,Vietnam,12.666194,108.038248
1258,339979,Canoas,Brazil,-29.853856,-51.125786
1259,339822,Huế,Vietnam,16.4498,107.56235
1260,339736,Nakhon Pathom,Thailand,13.819921,100.062168
1261,339715,Umlazi,South Africa,-29.966667,30.883333
1262,339461,Franca,Brazil,-23.544857,-46.635252
1263,339395,Kōriyama,Japan,37.400422,140.359555
1264,338650,Cuernavaca,Mexico,18.858841,-99.222601
1265,338560,Tokorozawa,Japan,35.786201,139.473916
1266,338429,Ismailia,Egypt,30.596492,32.271459
1267,338366,Andizhan,Uzbekistan,40.815356,72.28375
1268,338153,Plovdiv,Bulgaria,42.135408,24.74529
1269,337848,Neiva,Colombia,2.926112,-75.28906
1270,337000,Ado Ekiti,Nigeria,"7,623","5,226"
1271,336310,Jinju,Republic of Korea,35.179982,128.107621
1272,336262,Amara,Iraq,31.833333,47.15
1273,336239,Kupang,Indonesia,-10.152205,123.634176
1274,336222,Carrefour,Haiti,18.534444,-72.409444
1275,336000,Abakaliki,Nigeria,"6,315","8,125"
1276,335693,Kawagoe,Japan,35.931122,139.500608
1277,334870,Varna,Bulgaria,43.21405,27.914733
1278,334535,Ponta Grossa,Brazil,-25.095258,-50.161943
1279,334329,Alicante,Spain,38.345996,-0.490686
1280,334227,Santa Ana,USA,33.7365,-117.8826
1281,334002,Blumenau,Brazil,-26.922311,-49.063493
1282,333311,Diwaniya,Iraq,31.989167,44.924722
1283,332863,Tepic,Mexico,21.49089,-104.8747
1284,332767,Kherson,Ukraine,46.635417,32.616867
1285,332177,Western Conurbation,Kenya,0.38,34.75
1286,332000,Katsina,Nigeria,"12,979","7,622"
1287,331888,Cuenca,Ecuador,-2.900128,-79.005896
1288,331779,Blida,Algeria,36.479868,2.800568
1289,331674,Kut,Iraq,32.505556,45.824722
1290,331479,Elazığ,Turkey,38.680969,39.226398
1291,331320,Mandaue,Philippines,10.333333,123.933333
1292,331254,Ambon,Indonesia,-3.705,128.17
1293,331000,Minna,Nigeria,"9,622","6,545"
1294,330574,Leicester,United Kingdom,52.636878,-1.139759
1295,330451,Smolensk,Russia,54.790311,32.050366
1296,330106,Bilaspur,India,22.079625,82.139141
1297,330000,Thái Nguyên,Vietnam,21.561377,105.876004
1298,329868,Chita,Russia,52.05,113.466667
1299,329536,Gorgan,Iran,36.840521,54.446216
1300,329287,Akita,Japan,39.716845,140.129743
1301,329024,Ōtsu,Japan,35.002972,135.864896
1302,328864,Bielefeld,Germany,52.0230275,8.5326973
1303,328699,Mandaluyong,Philippines,14.579444,121.035917
1304,328555,Tieling,China,42.2895507,123.8394469
1305,328100,Pavlodar,Kazakhstan,52.287303,76.967402
1306,328000,Al Ain,United Arab Emirates,24.130162,55.802312
1307,328000,Gboko,Nigeria,"7,331","8,999"
1308,327917,Fayyum,Egypt,29.308402,30.84285
1309,327460,Volzhsky,Russia,48.805556,44.741667
1310,327448,Vladikavkaz (Osetinskaya ASSR),Russia,43.016667,44.65
1311,326729,Kurgan,Russia,55.466667,65.35
1312,326473,Saransk,Russia,54.183333,45.183333
1313,326336,Angeles,Philippines,15.144985,120.588703
1314,326017,Petrolina,Brazil,-9.366545,-40.565944
1315,325548,Bafoussam,Cameroon,5.48,10.41
1316,325020,Batman,Turkey,37.881168,41.13509
1317,323674,Brest,Belarus,52.097621,23.73405
1318,322821,Iligan,Philippines,8.228021,124.245242
1319,322271,Ixtapaluca,Mexico,19.432608,-99.133208
1320,322030,Ganja,Azerbaijan,40.682778,46.360556
1321,322000,Lokoja,Nigeria,"7,798","6,709"
1322,322000,Oyo,Nigeria,"7,837","3,926"
1323,321957,Sumgayit,Azerbaijan,40.585477,49.631741
1324,321885,Shahjahanpur,India,27.883744,79.912245
1325,321616,Katowice,Poland,50.264892,19.023782
1326,321146,Wonju,Republic of Korea,37.342219,127.920162
1327,321062,Surgut,Russia,61.25,73.433333
1328,320475,Bari,Italy,41.117143,16.871871
1329,320183,Long Xuyên,Vietnam,10.375942,105.418541
1330,319769,Paulista,Brazil,-7.962921,-34.865427
1331,319554,Kaechon,Democratic People's Republic of Korea,39.698611,125.906111
1332,319310,Ribeirão das Neves,Brazil,-19.796902,-44.014942
1333,318813,Uberaba,Brazil,-19.752416,-47.939036
1334,318676,Baguio,Philippines,16.402333,120.596007
1335,318642,Orel,Russia,52.966847,36.06249
1336,318592,Koshigaya,Japan,35.889607,139.789538
1337,318576,Valladolid,Spain,41.652251,-4.724532
1338,318488,Sivas,Turkey,39.747662,37.017879
1339,318416,St. Louis,USA,38.6357,-90.2446
1340,318332,Tarlac City,Philippines,15.475479,120.596349
1341,318058,Maebashi,Japan,36.383191,139.073177
1342,317886,Ratchaburi,Thailand,13.528289,99.813421
1343,317595,Bunia,Democratic Republic of the Congo,1.57,30.25
1344,317517,Central Coast,Australia,-33.300134,151.191101
1345,317363,Moshi,Tanzania,-3.36,37.31
1346,316973,Manisa,Turkey,38.619099,27.428921
1347,316619,Riverside,USA,33.9381,-117.3932
1348,316381,Corpus Christi,USA,27.7543,-97.1734
1349,316327,Victoria,Canada,48.428421,-123.365644
1350,315788,Sakon Nakhon,Thailand,17.1546,104.134837
1351,315649,Iaşi,Romania,47.156944,27.590278
1352,315596,Thrissur,India,10.527642,76.214435
1353,315474,Cardiff,United Kingdom,51.481581,-3.17909
1354,315310,Alwar,India,27.552991,76.634573
1355,315186,Cherepovets,Russia,59.132333,37.909181
1356,315147,Huambo,Angola,-12.78,15.76
1357,314900,Boa Vista,Brazil,2.805389,-60.691352
1358,314805,Córdoba,Spain,37.888175,-4.779383
1359,314590,Ostrava,Czech Republic,49.820923,18.262524
1360,314546,Ciudad de Corrientes,Argentina,-27.471226,-58.839584
1361,314239,Khayelitsa,South Africa,-34.040278,18.677778
1362,314162,Naha,Japan,26.212312,127.679157
1363,313679,Vologda,Russia,59.218066,39.897805
1364,313503,Semipalatinsk,Kazakhstan,50.423346,80.250811
1365,313110,Catania,Italy,37.507877,15.08303
1366,312942,Aktobe,Kazakhstan,50.283934,57.166978
1367,312255,Kakinada,India,16.989065,82.247465
1368,312113,Timișoara,Romania,45.759722,21.23
1369,311485,San Bernardo,Chile,-33.583333,-70.7
1370,311472,Kolwezi,Democratic Republic of the Congo,-10.7,25.53
1371,311299,Uvira,Democratic Republic of the Congo,-3.4,29.14
1372,311287,Bonn,Germany,50.7358511,7.1006599
1373,311000,Quy Nhơn,Vietnam,13.759915,109.218671
1374,310467,Nizamabad,India,18.672505,78.094087
1375,310104,Rahimyar Khan,Pakistan,28.421157,70.298874
1376,309762,Novi Sad,Serbia,45.267135,19.83355
1377,309709,Butuan,Philippines,8.947538,125.540623
1378,309319,St. Catharines–Niagara,Canada,43.159375,-79.246863
1379,309259,Cascavel,Brazil,-24.949907,-53.445368
1380,308989,Guarujá,Brazil,-23.997269,-46.259492
1381,308922,Sagar,India,23.838805,78.737807
1382,308680,Gujrat,Pakistan,32.571144,74.075005
1383,308637,Zagazig,Egypt,30.584918,31.497226
1384,308458,Iksan,Republic of Korea,35.948286,126.957599
1385,308440,Kaesong,Democratic People's Republic of Korea,37.938194,126.587795
1386,308428,Lexington,USA,38.0402,-84.4584
1387,308318,Mardan,Pakistan,34.200114,72.050801
1388,307764,Sariwon,Democratic People's Republic of Korea,38.506389,125.759722
1389,307671,Kassala,Sudan,15.47,36.4
1390,306584,Yokkaichi,Japan,34.963085,136.629654
1391,306009,Cluj-Napoca,Romania,46.766667,23.583333
1392,305884,Aomori,Japan,40.828713,140.734682
1393,305841,Pittsburgh,USA,40.4398,-79.9766
1394,305821,Tumkur,India,13.34,77.1
1395,305632,Santa Elena,Ecuador,-2.19348,-80.543845
1396,305607,Batangas City,Philippines,13.756465,121.058308
1397,305421,Novorossiysk,Russia,44.716667,37.75
1398,305155,Ciudad Victoria,Mexico,25.843954,-97.526893
1399,305147,Kurume,Japan,33.320409,130.501888
1400,304600,Kunduz,Afghanistan,36.728591,68.868066
1401,303754,Murmansk,Russia,68.958524,33.08266
1402,303475,Coventry,United Kingdom,52.406822,-1.519693
1403,303428,Kota Kinabalu,Malaysia,5.980408,116.073457
1404,303346,Nampula,Mozambique,-15.116667,39.266667
1405,302040,Constanţa,Romania,44.173333,28.638333
1406,301624,Imus,Philippines,14.406422,120.940506
1407,301416,Kingston upon Hull,United Kingdom,53.745671,-0.336741
1408,301249,Hisar,India,29.149188,75.721653
1409,300950,Anchorage,USA,61.2176,-149.8953
1410,300943,Camagüey,Cuba,21.392604,-77.905318
1411,300713,Kasugai,Japan,35.24326,136.98522
1412,300707,Palmira,Colombia,3.47539,-76.505055
1413,300471,Wad Madany,Sudan,14.42,33.47
1414,299746,Morioka,Japan,39.701683,141.136369
1415,299708,Münster,Germany,51.9501317,7.61330165026
1416,299431,Sylhet,Bangladesh,24.6020835,91.6929008814
1417,299423,Taubaté,Brazil,-23.023532,-45.552725
1418,299108,Cabimas,Venezuela,10.389586,-71.469284
1419,299103,Karlsruhe,Germany,49.0140679,8.4044366
1420,298926,Yakutsk,Russia,62.033333,129.733333
1421,298866,Ust-Kamenogorsk,Kazakhstan,49.974929,82.601724
1422,298681,Sukabumi,Indonesia,-6.9196,106.9272
1423,298643,Craiova,Romania,44.333333,23.816667
1424,298625,Ciudad Obregón,Mexico,29.297225,-110.330881
1425,298224,Cirebon,Indonesia,-6.737246,108.550656
1426,298118,Stockton,USA,37.9763,-121.3133
1427,298017,Petrópolis,Brazil,-22.488026,-43.177567
1428,297943,Halifax,Canada,44.648863,-63.57532
1429,297517,Cincinnati,USA,39.1399,-84.5064
1430,286073,Shimonoseki,Japan,33.950406,130.923083
1431,297317,Sunchon,Democratic People's Republic of Korea,39.416667,125.933333
1432,297284,Tampico,Mexico,22.305992,-97.860086
1433,297084,Kasur,Pakistan,31.10503,74.430862
1434,296690,Mannheim,Germany,49.4895914,8.4672361
1435,296417,Sari,Iran,36.580333,53.060478
1436,295883,Tongi,Bangladesh,23.897429,90.4078742
1437,294875,İzmit,Turkey,40.765597,29.94072
1438,294873,Saint Paul,USA,44.9489,-93.1039
1439,294577,Rohtak,India,28.8909,76.5796
1440,294310,San Pedro,Philippines,14.175853,121.539855
1441,294150,Panipat,India,29.390946,76.963502
1442,294128,Limeira,Brazil,-22.562118,-47.400273
1443,294116,Darbhanga,India,26.111868,85.896004
1444,293725,Vigo,Spain,42.240599,-8.720727
1445,293717,Bradford,United Kingdom,53.795984,-1.759398
1446,293695,Praia Grande,Brazil,-24.047225,-46.526361
1447,293605,Armenia,Colombia,4.51403,-75.75058
1448,293000,Ife,Nigeria,"7,485","4,544"
1449,292934,São José dos Pinhais,Brazil,-25.441411,-49.161319
1450,292627,Yeosu,Republic of Korea,34.760374,127.662222
1451,292521,Kanchanaburi,Thailand,14.02278,99.532811
1452,292162,Akashi,Japan,34.649053,134.992401
1453,291917,Białystok,Poland,53.132489,23.16884
1454,291872,Palu,Indonesia,-0.9,119.833333
1455,291822,Aizawl,India,23.727107,92.717639
1456,291225,Luque,Paraguay,-25.27,-57.487222
1457,290937,Oshawa,Canada,43.897093,-78.865791
1458,290868,Gebze,Turkey,40.807751,29.43734
1459,290817,Malard,Iran,35.664902,50.98259
1460,290733,Galaţi,Romania,45.423333,28.0425
1461,290521,Santarém,Brazil,-2.569879,-54.64105
1462,290269,Chernigov,Ukraine,51.4982,31.28935
1463,290269,SAN SALVADOR,El Salvador,13.69294,-89.218191
1464,290139,Seremban,Malaysia,2.725889,101.937824
1465,289831,Poltava,Ukraine,49.588267,34.551417
1466,289504,Batna,Algeria,35.568518,6.187173
1467,289355,Fukushima,Japan,37.75442,140.458533
1468,289233,Hilla,Iraq,32.483333,44.433333
1469,289215,Tsu,Japan,34.733985,136.510232
1470,289148,Viña del Mar,Chile,-33.024527,-71.55234
1471,288730,Utrecht,Netherlands,52.090737,5.12142
1472,288353,Holguín,Cuba,20.783789,-75.806908
1473,288054,SAN JOSE,Costa Rica,9.928069,-84.090725
1474,288000,Makurdi,Nigeria,"7,729","8,557"
1475,287977,San Lorenzo,Paraguay,-25.34,-57.52
1476,287841,Hufuf,Saudi-Arabia,25.374166,49.587292
1477,287570,Ichalkaranji,India,16.709001,74.456081
1478,287311,Gunpo,Republic of Korea,37.353732,126.948517
1479,287035,Tirupati,India,13.628756,79.419179
1480,286974,Karnal,India,29.685693,76.990482
1481,286497,Sunshine Coast,Australia,-26.655976,153.091837
1482,285912,San Fernando,Philippines,15.059394,120.656705
1483,285813,Bathinda,India,30.210994,74.945475
1484,285067,al-Mubarraz,Saudi-Arabia,25.409808,49.582293
1485,284970,Nantes,France,47.218371,-1.553621
1486,284670,Santa Rosa,Philippines,14.284302,121.088893
1487,284506,Tamale,Ghana,"9,417","-0,833"
1488,284487,Eldoret,Kenya,0.51,35.28
1489,284386,Pyongsong,Democratic People's Republic of Korea,39.25,125.85
1490,284288,Mossoró,Brazil,-5.204348,-37.316157
1491,284244,Tacna,Peru,-18.006568,-70.246274
1492,284079,Delmas,Haiti,18.543361,-72.305212
1493,284032,SUCRE,Bolivia,-19.019585,-65.261961
1494,283924,Cherkassy,Ukraine,49.40244,32.012282
1495,283517,Qods,Iran,35.721389,51.108889
1496,283468,Lipa,Philippines,13.941876,121.16442
1497,283396,Biñan,Philippines,14.303635,121.078149
1498,283243,Wollongong,Australia,-34.425073,150.893149
1499,282981,Vinh,Vietnam,18.679585,105.681333
1500,282918,Ramadi,Iraq,33.416667,43.3
1501,282441,Suzano,Brazil,-23.587463,-46.303235
1502,282313,Toledo,USA,41.6641,-83.5819
1503,281799,Ciudad Nicolás Romero,Mexico,19.432608,-99.133208
1504,281494,Rampur,India,28.789304,79.024952
1505,281492,Mbandaka,Democratic Republic of the Congo,0.04,18.26
1506,281434,Pekalongan,Indonesia,-6.896143,109.675835
1507,281413,Camaçari,Brazil,-12.700801,-38.324498
1508,281348,Tambov,Russia,52.716667,41.433333
1509,281222,Nagaoka,Japan,37.493639,138.78264
1510,280415,Malmö,Sweden,55.604981,13.003822
1511,280309,al-Gadarif,Sudan,14.03,35.4
1512,279765,Ensenada,Mexico,31.829881,-116.599987
1513,279720,Thies,Senegal,"14,800","-16,933"
1514,279655,Ciudad del Este,Paraguay,-25.516667,-54.616667
1515,279653,Ljubljana,Slovenia,46.056947,14.505751
1516,279639,Greensboro,USA,36.0965,-79.8271
1517,279591,Ichihara,Japan,35.521471,140.127447
1518,279340,Roodepoort,South Africa,-26.1625,27.8725
1519,279074,Lhasa,China,29.6568869,91.1314249
1520,278767,San Cristóbal,Dominican Republic,18.41888,-70.103067
1521,278427,Newark,USA,40.7242,-74.1726
1522,278188,Vũng Tàu,Vietnam,10.41138,107.136224
1523,278003,Braşov,Romania,45.666667,25.616667
1524,277959,Coacalco de Berriozábal,Mexico,19.432608,-99.133208
1525,277382,Pathein,Myanmar,"16,78","94,73"
1526,277056,Hakodate,Japan,41.773746,140.726399
1527,277017,Punto Fijo,Venezuela,11.716667,-70.183333
1528,276995,Governador Valadares,Brazil,-18.875224,-41.963195
1529,276542,Augsburg,Germany,48.3668041,10.8986971
1530,276538,Gunsan,Republic of Korea,35.967677,126.736629
1531,276524,Groznyi,Russia,43.31688,45.681486
1532,276459,Belfast,United Kingdom,54.597285,-5.93012
1533,276165,Windsor,Canada,42.314937,-83.036363
1534,275350,Asan,Republic of Korea,36.783333,126.983333
1535,275325,Kashan,Iran,33.985036,51.409963
1536,275138,Soyapango,El Salvador,13.710045,-89.137253
1537,275087,Sterlitamak,Russia,53.633333,55.95
1538,274942,Gorlovka,Ukraine,48.321,38.0459
1539,274838,Santa Maria,Brazil,-29.695408,-53.8056
1540,274509,Bahía Blanca,Argentina,-38.711678,-62.268078
1541,274490,Resistencia,Argentina,-27.451656,-58.986252
1542,274409,Plano,USA,33.0508,-96.7479
1543,274352,Shivamogga,India,13.92993,75.568101
1544,274082,Vicente López,Argentina,-34.52812,-58.473816
1545,273892,Ratlam,India,23.33417,75.037632
1546,273871,Wiesbaden,Germany,50.0833,8.25
1547,273547,La Vega,Dominican Republic,19.22,-70.53
1548,273450,Aswan,Egypt,24.088938,32.899829
1549,273400,Brighton & Hove,United Kingdom,50.835161,-0.126103
1550,273300,Haeju,Democratic People's Republic of Korea,38.033333,125.716667
1551,273244,Yao,Japan,34.61709,135.596973
1552,273130,Chuncheon,Republic of Korea,37.881315,127.729971
1553,272918,Modinagar,India,28.831631,77.577959
1554,272709,Popayán,Colombia,2.446171,-76.598573
1555,272676,Cabanatuan,Philippines,15.486505,120.973393
1556,272447,Morogoro,Tanzania,-6.81,37.69
1557,272274,Suncheon,Republic of Korea,34.95,127.483333
1558,272240,Ibaraki,Japan,34.822147,135.559953
1559,272231,Puerto La Cruz,Venezuela,10.200799,-64.633464
1560,271786,Cotabato City,Philippines,7.216667,124.25
1561,271782,Strasbourg,France,48.573405,7.752111
1562,271295,Sumy,Ukraine,50.9077,34.7981
1563,271073,Venice,Italy,45.440847,12.315515
1564,270814,Haifa,Israel,32.794046,34.989571
1565,270811,Henderson,USA,36.0122,-115.0375
1566,270689,Gravataí,Brazil,-29.938396,-51.015067
1567,270366,Kostroma,Russia,57.766667,40.933333
1568,270211,Gijón,Spain,43.532202,-5.66112
1569,270046,Zhitomir,Ukraine,50.25465,28.658667
1570,268738,Lincoln,USA,40.809,-96.6804
1571,268679,Durg,India,21.19,81.28
1572,268574,Fukui,Japan,36.062128,136.223321
1573,268507,Kediri,Indonesia,-7.816611,112.011917
1574,268347,Santa Catarina,Mexico,25.677317,-100.462132
1575,268321,Taboão da Serra,Brazil,-23.620019,-46.783776
1576,267662,Shillong,India,25.578773,91.893254
1577,267631,Kakogawa,Japan,34.767844,134.839416
1578,267571,Sincelejo,Colombia,9.316948,-75.387885
1579,267108,Yangsan,Republic of Korea,35.335007,129.037169
1580,267102,Petrozavodsk,Russia,61.783333,34.333333
1581,267005,Ha'il,Saudi-Arabia,27.516667,41.683333
1582,266627,Damietta,Egypt,31.417539,31.814443
1583,257894,Lubango,Angola,-14.92,13.53
1584,266444,Gwangju,Republic of Korea,37.417141,127.256141
1585,266370,Tokushima,Japan,34.074642,134.550764
1586,265857,Bergen,Norway,60.391263,5.322054
1587,265833,Djelfa,Algeria,34.666667,3.25
1588,265775,Várzea Grande,Brazil,-15.652929,-56.128419
1589,265747,Balıkesir,Turkey,39.648369,27.88261
1590,265626,Yoshkar-Ola,Russia,56.633333,47.866667
1591,265606,Nakhon Si Thammarat,Thailand,8.430398,99.963122
1592,265409,Palmas,Brazil,-9.968408,-48.338582
1593,265101,Temuco,Chile,-38.73383,-72.584496
1594,265051,Naltchik,Russia,43.483333,43.616667
1595,265028,Gyeongju,Republic of Korea,35.856172,129.224748
1596,264991,Pokhara,Nepal,28.263889,83.972222
1597,264986,Imphal,India,24.82,93.95
1598,264439,Uruapan,Mexico,19.566519,-101.706829
1599,264290,Guarenas,Venezuela,10.466263,-66.616882
1600,264158,Rangpur,Bangladesh,25.7653099,89.2322108
1601,264091,Santa Ana,El Salvador,13.977828,-89.563912
1602,264062,Mito,Japan,36.371091,140.476207
1603,263908,Floridablanca,Colombia,7.13011,-73.12569
1604,263704,Juazeiro do Norte,Brazil,-7.248369,-39.304801
1605,263647,Foz do Iguaçu,Brazil,-25.499492,-54.574301
1606,263179,Boksburg,South Africa,-26.2125,28.2625
1607,263000,Laayoune,Morocco,35.171389,-5.269722
1608,262832,Lamphun,Thailand,18.574461,99.008722
1609,262801,Hapur,India,28.73058,77.775882
1610,262346,Ranipet,India,12.95976,79.303085
1611,262340,Anantapur,India,14.681888,77.600591
1612,262308,Sumaré,Brazil,-23.549407,-46.680201
1613,262259,Volta Redonda,Brazil,-22.524836,-44.094875
1614,262154,Khmelnitsky,Ukraine,49.422983,26.987133
1615,262124,Mutare,Zimbabwe,-18.966667,32.633333
1616,261825,Ngaoundéré,Cameroon,7.32,13.58
1617,261662,Itagüi,Colombia,6.169924,-75.607187
1618,261445,Karamay,China,45.5983043,84.8658499
1619,261099,Arrah,India,25.556044,84.660331
1620,261011,Nizhnevartovsk,Russia,60.943119,76.543372
1621,260997,Gimpo,Republic of Korea,37.643409,126.660165
1622,260899,Karimnagar,India,18.438555,79.128841
1623,260607,Juliaca,Peru,-15.499688,-70.129653
1624,260419,Hiratsuka,Japan,35.327486,139.340019
1625,259790,Niš,Serbia,43.320902,21.895759
1626,259555,Barueri,Brazil,-23.502963,-46.870575
1627,259480,Golestan (Soltanabad),Iran,35.515945,51.183968
1628,259329,Parbhani,India,19.260996,76.776665
1629,259252,Stoke-on-Trent,United Kingdom,53.002668,-2.179404
1630,259081,Komsomolsk-na-Amure,Russia,50.566667,137
1631,259056,Misrata,Libya,32.377533,15.092017
1632,259053,Embu das Artes,Brazil,-23.663357,-46.865269
1633,258959,Buffalo,USA,42.8925,-78.8597
1634,258150,Osh,Kyrgyzstan,40.53,72.8
1635,257850,Gelsenkirchen,Germany,51.5109791,7.0959263
1636,257763,Bengkulu,Indonesia,-3.792067,102.261996
1637,257352,Gómez Palacio,Mexico,24.02772,-104.653176
1638,257351,Montpellier,France,43.610769,3.876716
1639,257342,Jersey City,USA,40.7114,-74.0648
1640,257062,Marabá,Brazil,-5.341509,-49.125474
1641,257000,Ijebu Ode,Nigeria,"6,822","3,925"
1642,256790,Stary Oskol,Russia,51.298082,37.837959
1643,256790,Etawah,India,26.811712,79.00469
1644,256780,Chula Vista,USA,32.6277,-117.0152
1645,256613,Los Mochis,Mexico,25.58385,-108.464624
1646,256584,Pachuca,Mexico,20.097613,-98.709579
1647,256496,Fort Wayne,USA,41.0882,-85.1439
1648,256393,Đà Lạt,Vietnam,11.940419,108.458313
1649,255671,Taganrog,Russia,47.216667,38.916667
1650,255483,Orlando,USA,28.4159,-81.2988
1651,255430,Mönchengladbach,Germany,51.1668457,6.4127228518
1652,255370,Yamagata,Japan,38.248645,140.327536
1653,255283,Syktivkar,Russia,61.666667,50.816667
1654,255266,Ipatinga,Brazil,-19.450775,-42.558409
1655,255088,Bertoua,Cameroon,4.58,13.68
1656,255084,Chernovtsy,Ukraine,48.266855,25.967216
1657,255029,Oaxaca,Mexico,17.059417,-96.721622
1658,255015,Soledad de Graciano Sánchez,Mexico,22.186405,-100.938994
1659,254886,Alajuela,Costa Rica,10.391583,-84.438272
1660,254650,Sasebo,Japan,33.163864,129.725662
1661,254158,PORT MORESBY,Papua New Guinea,-9.4438,147.180267
1662,253651,Gdynia,Poland,54.51889,18.530541
1663,253208,Verona,Italy,45.438384,10.991622
1664,252981,Posadas,Argentina,-27.362137,-55.900875
1665,252945,Espoo,Finland,60.205491,24.6559
1666,252320,Imperatriz,Brazil,-5.527923,-47.487711
1667,252127,Sétif,Algeria,36.196903,5.415087
1668,252026,Messina,Italy,38.193814,15.554015
1669,251971,Kanggye,Democratic People's Republic of Korea,40.966667,126.6
1670,251757,Valparaíso,Chile,-33.047238,-71.612688
1671,251466,Los Teques,Venezuela,10.333333,-67.033333
1672,251462,Wolverhampton,United Kingdom,52.586973,-2.12882
1673,251136,Begusarai,India,25.42,86.13
1674,251033,Viamão,Brazil,-30.08187,-51.030156
1675,250660,Rạch Giá,Vietnam,10.014334,105.088148
1676,250645,Irbid,Jordan,32.545442,35.857153
1677,250303,Mérida,Venezuela,38.914296,-6.349197
1678,250099,Graz,Austria,47.070714,15.439504
1679,249998,New Delhi,India,28.613939,77.209021
1680,249688,St. Petersburg,USA,27.762,-82.6441
1681,249595,Los Alcarrizos,Dominican Republic,18.524187,-70.02054
1682,249584,Nottingham,United Kingdom,52.954783,-1.158109
1683,249473,Shahriar,Iran,35.659722,51.059167
1684,249146,Chandler,USA,33.2829,-111.8549
1685,249131,Navotas,Philippines,14.67149,120.939847
1686,248894,Częstochowa,Poland,50.81182,19.120309
1687,248890,San Pablo,Philippines,14.064211,121.323337
1688,248800,Sfax,Tunisia,34.733333,10.766667
1689,248716,Tehuacán,Mexico,19.041297,-98.2062
1690,248649,Dzerzhinsk (Nizhegorodskaya oblast),Russia,56.233333,43.45
1691,248445,FuchuFuchū,Japan,35.676247,139.479536
1692,248436,Cabuyao,Philippines,14.278333,121.124722
1693,248380,Dezful,Iran,32.438828,48.38468
1694,248251,Novo Hamburgo,Brazil,-29.694729,-51.080386
1695,248242,Ghent,Belgium,51.054342,3.717424
1696,248237,Dneprodzerzhinsk,Ukraine,48.523117,34.613683
1697,248150,L'Hospitalet,Spain,40.990924,0.923718
1698,248142,Laredo,USA,27.5477,-99.4869
1699,248130,Dirē Dawa,Ethiopia,9.61,41.88
1700,248006,Machakos,Kenya,-1.46,37.29
1701,248000,Birnin Kebbi,Nigeria,"12,454","4,214"
1702,247227,Braunschweig,Germany,52.27165645,10.5203138304
1703,247119,San Miguel,El Salvador,13.445104,-88.246118
1704,247074,Damanhur,Egypt,31.042457,30.47275
1705,247000,Ilesha,Nigeria,"7,622","4,753"
1706,246911,Rivne,Ukraine,50.6199,26.251617
1707,246880,Nadschran,Saudi-Arabia,17.491667,44.132222
1708,246835,al-Minya,Egypt,28.087097,30.76184
1709,246392,Lucena,Philippines,13.941396,121.623447
1710,246139,Norfolk,USA,36.923,-76.2446
1711,246118,Kure,Japan,34.248979,132.566202
1712,245779,MP Kota Bharu,Malaysia,2.833194,101.731968
1713,245475,Durham,USA,35.981,-78.9056
1714,245419,Petaling Jaya,Malaysia,3.099293,101.644858
1715,245283,Ciudad Ojeda,Venezuela,10.2,-71.3
1716,244783,Phatthalung,Thailand,7.616682,100.074023
1717,244768,Meiktila,Myanmar,"20,88","95,85"
1718,244696,Khomeini shahr,Iran,32.700278,51.521111
1719,244400,NASSAU,Bahamas,25.06,-77.345
1720,244256,Mokpo,Republic of Korea,34.811835,126.392166
1721,244168,Merlo,Argentina,-34.6685,-58.728248
1722,243795,Plymouth,United Kingdom,50.375457,-4.142656
1723,243746,Gyeongsan,Republic of Korea,35.825056,128.741544
1724,243544,Uralsk,Kazakhstan,51.227821,51.386543
1725,243411,Dera Ghazi Khan,Pakistan,30.032486,70.640246
1726,243344,Madison,USA,43.0878,-89.4301
1727,243151,Wah Cantonment,Pakistan,33.790986,72.722721
1728,243126,Chanthaburi,Thailand,12.611249,102.103781
1729,242946,PARAMARIBO,Suriname,5.852036,-55.203828
1730,242883,Porto,Portugal,41.157944,-8.629105
1731,242801,Tagum,Philippines,7.448212,125.809424
1732,242672,Nazrēt,Ethiopia,8.53,39.27
1733,242604,Bratsk,Russia,56.116667,101.6
1734,242458,A Coruña,Spain,43.362344,-8.41154
1735,242272,Ojo de Agua,Mexico,19.432608,-99.133208
1736,242022,Chemnitz,Germany,50.8322608,12.9252977
1737,242011,Rancagua,Chile,-34.168052,-70.738965
1738,241823,Kadapa,India,14.467354,78.824134
1739,241694,Narayanganj,Bangladesh,23.6243367,90.4997449
1740,241683,Aachen,Germany,50.776351,6.0838618
1741,241613,Hachinohe,Japan,40.513493,141.488067
1742,241606,Machala,Ecuador,-3.258111,-79.955392
1743,241533,Kiel,Germany,54.3216753,10.1371858
1744,241327,Orsk,Russia,51.2,58.566667
1745,241100,Nam Định,Vietnam,20.27918,106.205148
1746,241000,Lafia,Nigeria,"8,504","8,526"
1747,240951,Riohacha,Colombia,11.52517,-72.87942
1748,240934,Ivano-Frankovsk,Ukraine,48.887218,24.690951
1749,240654,Borujerd,Iran,33.916126,48.735144
1750,240522,Granada,Spain,37.177336,-3.598557
1751,240504,Mek'elē,Ethiopia,13.51,39.46
1752,240438,Sikasso,Mali,"11,324","-5,657"
1753,240117,Anju,Democratic People's Republic of Korea,39.62,125.66
1754,239932,Saga,Japan,33.264199,130.297088
1755,239599,Tegal,Indonesia,-6.858847,109.104766
1756,239538,Lubbock,USA,33.5665,-101.8867
1757,239363,Ica,Peru,-13.937938,-75.800709
1758,239281,Saraburi,Thailand,14.528915,100.910142
1759,239253,Kirovograd,Ukraine,48.523638,32.260243
1760,239215,Kosty,Sudan,13.17,32.67
1761,239185,Neyshabur,Iran,36.214087,58.796091
1762,239182,Sahiwal,Pakistan,30.661181,73.108576
1763,239157,Bordeaux,France,44.837789,-0.57918
1764,239029,Neyagawa,Japan,34.7662,135.627952
1765,238958,São Carlos,Brazil,-22.024825,-47.891287
1766,238284,Balashikha,Russia,55.816667,37.966667
1767,238276,Tarsus,Turkey,36.927963,34.904551
1768,238209,Binjai,Indonesia,3.592169,98.495223
1769,238031,Shakhty,Russia,47.7,40.233333
1770,237964,Sōka,Japan,35.8385,139.801708
1771,237686,Ramagundam,India,18.75955,79.481638
1772,237676,Tembisa,South Africa,-26.006312,28.210883
1773,237361,Bukhara,Uzbekistan,39.768083,64.455577
1774,237279,Fuji,Japan,35.151497,138.651225
1775,237133,Tokchon,Democratic People's Republic of Korea,39.761,126.312
1776,236989,Maimansingh,Bangladesh,24.7612675,90.3972045
1777,236854,Kasukabe,Japan,35.981542,139.752129
1778,236716,Irvine,USA,33.6784,-117.7713
1779,236473,Nawabshah,Pakistan,26.244221,68.410034
1780,236441,Winston–Salem,USA,36.1033,-80.2606
1781,236269,Kendari,Indonesia,-3.972201,122.514903
1782,235983,Coatzacoalcos,Mexico,19.173773,-96.134224
1783,235983,Parnamirim,Brazil,-5.879681,-35.172976
1784,235967,Paraná,Argentina,-31.74132,-60.511547
1785,235827,Lop Buri,Thailand,14.799508,100.653371
1786,235769,Durán,Ecuador,-2.166667,-79.833333
1787,235685,Kütahya,Turkey,39.4167,29.9833
1788,235568,Mingaora,Pakistan,34.778824,72.333356
1789,235279,Nizhnekamsk,Russia,55.633333,51.816667
1790,234945,Malolos,Philippines,14.852739,120.816038
1791,234632,Glendale,USA,33.5331,-112.1899
1792,234566,Garland,USA,32.9098,-96.6304
1793,234224,Southampton,United Kingdom,50.9097,-1.404351
1794,234063,Trabzon,Turkey,41.00355,39.724049
1795,233990,Pleiku,Vietnam,14.016151,107.993
1796,233841,Purwokerto,Indonesia,-7.431391,109.24783
1797,233659,Košice,Slovakia,48.721005,21.2578
1798,233634,Magé,Brazil,-22.678512,-42.970207
1799,233572,Rishon Leziyyon,Israel,31.973002,34.792501
1800,233529,Windhoek,Namibia,-22.57,17.083611
1801,233394,Hialeah,USA,25.8699,-80.3029
1802,233294,Reno,USA,39.4745,-119.7765
1803,233255,San Pedro de Macoris,Dominican Republic,18.45,-69.3
1804,233023,Adapazarı,Turkey,40.778127,30.400535
1805,232891,Geoje,Republic of Korea,34.880643,128.621082
1806,232798,Nong Khai,Thailand,17.87828,102.741264
1807,232662,Reading,United Kingdom,51.454265,-0.97813
1808,231978,Hafar al-Batin,Saudi-Arabia,28.331836,45.957475
1809,231944,Angarsk,Russia,52.55,103.9
1810,231824,Kasama,Zambia,-10.229055,31.193945
1811,231592,GABORONE,Botswana,-24.658056,25.912222
1812,231565,Halle (Saale),Germany,51.4825041,11.9705452
1813,231557,Sabzewar,Iran,36.171513,57.60332
1814,231229,San Salvador de Jujuy,Argentina,-24.185786,-65.299477
1815,231021,Magdeburg,Germany,52.1315889,11.6399609
1816,231005,Chigasaki,Japan,35.340079,139.409041
1817,230810,Quilmes,Argentina,-34.726025,-58.254356
1818,230614,Ciudad de Santiago del Estero,Argentina,-27.78442,-64.267281
1819,230571,Chesapeake,USA,36.6794,-76.3018
1820,230336,Marília,Brazil,-22.212214,-49.950887
1821,229972,Gilbert,USA,33.3102,-111.7422
1822,229956,Pali,India,25.771089,73.323448
1823,229887,Sete Lagoas,Brazil,-19.4576,-44.247242
1824,229872,Colombo,Brazil,-25.250824,-49.19264
1825,229624,Macaé,Brazil,-22.3711,-41.784514
1826,229525,Pematang Siantar,Indonesia,2.970042,99.068167
1827,229426,Baton Rouge,USA,30.4485,-91.1259
1828,229407,Derby,United Kingdom,52.92253,-1.474619
1829,229329,Arapiraca,Brazil,-9.77961,-36.644031
1830,229307,Satna,India,24.600508,80.832243
1831,229207,Sosnowiec,Poland,50.286264,19.104079
1832,228653,Irving,USA,32.8577,-96.97
1833,228643,Divinópolis,Brazil,-20.146848,-44.888314
1834,228561,São José,Brazil,-27.567852,-48.612677
1835,228496,Suphan Buri,Thailand,14.474489,100.117713
1836,228378,Ploieşti,Romania,44.933333,26.033333
1837,228123,Aarhus,Denmark,56.162939,10.203921
1838,228025,Vizianagaram,India,18.106658,83.395551
1839,228001,al-Fasher,Sudan,13.63,25.35
1840,228000,Saki,Nigeria,"8,672","3,392"
1841,227944,Radom,Poland,51.402724,21.147133
1842,227735,Rusaifa,Jordan,29.53192,35.006084
1843,227568,Vitoria-Gasteiz,Spain,42.859166,-2.681792
1844,227564,Gondar,Ethiopia,12.6,37.46
1845,227560,Lille,France,50.62925,3.057256
1846,227392,Matsumoto,Japan,36.231657,137.976186
1847,227180,Swansea,United Kingdom,51.62144,-3.943646
1848,227168,Itaboraí,Brazil,-22.675382,-42.974824
1849,226988,São Leopoldo,Brazil,-30.036697,-51.225729
1850,226970,Americana,Brazil,-22.758211,-47.352234
1851,226918,Scottsdale,USA,33.6687,-111.8237
1852,226877,North Las Vegas,USA,36.283,-115.0893
1853,226728,Lalitpur,Nepal,27.666667,85.316667
1854,226602,Indaiatuba,Brazil,-23.087608,-47.211553
1855,226517,Pilar,Argentina,-34.455906,-58.908329
1856,226326,Okara,Pakistan,30.80905,73.450821
1857,225982,Katihar,India,25.533508,87.583748
1858,225903,Nakhon Sawan,Thailand,15.693007,100.122559
1859,225306,Cotia,Brazil,-23.607368,-46.924656
1860,225235,Hardwar,India,29.945691,78.164248
1861,225163,Atsugi,Japan,35.449056,139.367108
1862,225074,Sonipat,India,28.928774,77.091281
1863,224922,Fremont,USA,37.4944,-121.9411
1864,224912,Krementchug,Ukraine,49.0795,33.4411
1865,224826,Jacareí,Brazil,-23.284694,-45.952424
1866,224586,Daloa,Côte d'Ivoire,"6,887","-6,451"
1867,224473,Nicosia,Cyprus,35.166667,33.366667
1868,224329,Nagercoil,India,8.183286,77.4119
1869,224304,Araraquara,Brazil,-21.792055,-48.188587
1870,224146,Mbour,Senegal,"14,431","-16,967"
1871,223898,Banfield,Argentina,-34.744611,-58.391732
1872,223567,Concepción,Chile,-36.818938,-73.050319
1873,223449,As Seeb,Oman,23.660618,58.181055
1874,223365,Guaymallén,Argentina,-32.876533,-68.69165
1875,223127,Yamato,Japan,35.4697,139.461406
1876,223086,Portoviejo,Ecuador,-1.056111,-80.455278
1877,222673,Puerto Princesa,Philippines,9.967216,118.78551
1878,222619,Thanjavur,India,10.786999,79.137827
1879,222556,Isparta,Turkey,37.764771,30.556561
1880,222544,al-Dschubail,Saudi-Arabia,27.039028,49.405083
1881,222516,Atirau,Kazakhstan,47.094496,51.923837
1882,222479,Ageo,Japan,35.973534,139.588451
1883,222330,Sandakan,Malaysia,5.839444,118.117173
1884,222226,Ciudad de Formosa,Argentina,-26.185201,-58.17537
1885,222071,Takarazuka,Japan,34.800008,135.360289
1886,222065,Blagoveshchensk (Amurskaya oblast),Russia,50.272776,127.540402
1887,222058,Krefeld,Germany,51.3331205,6.5623343
1888,222035,Saskatoon,Canada,52.133214,-106.670046
1889,221875,Murwara (Katni),India,23.828381,80.418531
1890,221814,Najafabad,Iran,32.632423,51.367991
1891,221762,Naihati,India,22.892872,88.422032
1892,221520,Badalona,Spain,41.446988,2.245032
1893,221334,Sambhal,India,28.59,78.57
1894,221178,Olongapo,Philippines,14.83863,120.284202
1895,221174,Tacloban,Philippines,11.25,125
1896,221122,Manta,Ecuador,-0.967653,-80.70891
1897,221062,Phayao,Thailand,19.215437,100.202369
1898,221000,Jimeta,Nigeria,"9,252","12,457"
1899,220962,Palangkaraya,Indonesia,-2.21,113.92
1900,220651,Talca,Chile,-35.423244,-71.64848
1901,220599,Presidente Prudente,Brazil,-22.124124,-51.420593
1902,220389,ech,Mexico,19.840935,-90.538157
1903,220286,Freiburg im Breisgau,Germany,47.9960901,7.8494005
1904,220250,Itapevi,Brazil,-23.55051,-46.951121
1905,220143,Guanare,Venezuela,9.037128,-69.728693
1906,219941,Velikiy Novgorod,Russia,58.52557,31.274193
1907,219915,Amol,Iran,36.516613,52.327416
1908,219901,Mirpur Khas,Pakistan,25.525,69.015833
1909,219878,Meru,Kenya,-0.04,37.61
1910,219749,Maracanaú,Brazil,-3.844156,-38.585485
1911,219629,Jaleeb Al-Shuykh,Kuwait,29.227778,47.908889
1912,219467,Babol,Iran,36.509765,52.663137
1913,219053,Chōfu,Japan,35.650596,139.540808
1914,219000,Taloqan,Afghanistan,36.716667,69.516667
1915,218991,Varamin,Iran,35.32021,51.681725
1916,218925,Itabuna,Brazil,-14.790406,-39.277733
1917,218643,Dumai,Indonesia,1.667524,101.448188
1918,218472,Beni Suef,Egypt,29.066127,31.099385
1919,218275,Khimki,Russia,55.894055,37.443949
1920,218150,Nadiad,India,22.7,72.87
1921,218130,Çorum,Turkey,40.554371,34.963718
1922,217494,Gangneung,Republic of Korea,37.753333,128.943611
1923,217365,Guantánamo,Cuba,20.136667,-75.213889
1924,217062,Probolinggo,Indonesia,-7.751978,113.215594
1925,216981,Greater Hobart,Australia,-42.881903,147.323814
1926,216825,Bobruisk,Belarus,53.144607,29.221375
1927,216776,Puerto Montt,Chile,-41.4717,-72.9369
1928,216724,Oruro,Bolivia,-17.966667,-67.116667
1929,216637,José C. Paz,Argentina,-34.515105,-58.766246
1930,216628,Yamunanagar,India,30.129049,77.26739
1931,216626,Chingola,Zambia,-12.541955,27.854587
1932,216588,Juazeiro,Brazil,-9.410738,-40.505964
1933,216083,English Bazar,India,25.010841,88.141097
1934,215780,Biisk,Russia,52.533333,85.216667
1935,215745,Kuching,Malaysia,1.56,110.345
1936,215636,Ternopol,Ukraine,49.553517,25.594767
1937,215636,Mergui,Myanmar,"12,45","98,60"
1938,215610,Mabalacat,Philippines,15.222871,120.574439
1939,215377,Tampere,Finland,61.498151,23.761025
1940,215293,Çorlu,Turkey,41.167461,27.805599
1941,215271,Monclova,Mexico,26.805177,-101.419201
1942,215178,La Paz,Mexico,24.123798,-110.315394
1943,215050,Sungai Petani,Malaysia,5.643589,100.489418
1944,214851,Qena,Egypt,26.155061,32.716012
1945,214830,Santa Luzia,Brazil,-22.226135,-45.942562
1946,214798,Turmero,Venezuela,10.228333,-67.4725
1947,214414,Eluru,India,16.71066,81.095243
1948,214237,Boise,USA,43.5985,-116.2311
1949,214114,Richmond,USA,37.5314,-77.476
1950,214049,Ōta,Japan,36.291053,139.375549
1951,214000,Bida,Nigeria,"9,075","6,007"
1952,213777,Ashdod,Israel,31.804381,34.655314
1953,213708,San Bernardino,USA,34.1393,-117.2953
1954,213581,Antakya,Turkey,36.202809,36.160299
1955,213110,Boma,Democratic Republic of the Congo,-5.84,13.06
1956,213101,Munger,India,25.381,86.465
1957,212968,Pyatigorsk,Russia,44.05,43.05
1958,212958,Lübeck,Germany,53.8664436,10.6847384
1959,212744,Abadan,Iran,30.347296,48.2934
1960,212533,Nogales,Mexico,31.319533,-110.952451
1961,212527,Hortolândia,Brazil,-22.876674,-47.226613
1962,212378,Kustanai,Kazakhstan,53.219809,63.635423
1963,212283,Envigado,Colombia,6.172803,-75.591726
1964,212253,Barishal,Bangladesh,22.42181225,90.4295709175
1965,212152,Lanús,Argentina,-34.699417,-58.392631
1966,212113,Birmingham,USA,33.5274,-86.799
1967,212012,Nukus,Uzbekistan,42.466667,59.6
1968,211968,Santa Clara,Cuba,22.406919,-79.964939
1969,211966,Petah Tiqwa,Israel,32.084041,34.887762
1970,211943,Kyzylorda,Kazakhstan,44.848831,65.482269
1971,211884,Brăila,Romania,45.269194,27.957472
1972,211825,Engels,Russia,51.5,46.116667
1973,211774,Kamphaeng Phet,Thailand,16.48278,99.522662
1974,211718,Rondonópolis,Brazil,-16.437251,-54.680814
1975,211644,Lutsk,Ukraine,50.747233,25.325383
1976,211611,Pucallpa,Peru,-8.392862,-74.582617
1977,211608,Cajamarca,Peru,-6.454967,-78.838264
1978,211453,Higüey,Dominican Republic,18.614984,-68.71402
1979,211266,Coro,Venezuela,11.394604,-69.681034
1980,211184,Trieste,Italy,45.649526,13.776818
1981,210721,Spokane,USA,47.6736,-117.4166
1982,210699,Zinder,Niger,"13,809","8,983"
1983,210546,Dehiwala-Mount Lavinia,Sri Lanka,6.830118,79.880083
1984,210358,Rochester,USA,43.1699,-77.6169
1985,210218,Dourados,Brazil,-22.254544,-54.782428
1986,210175,Panchkula,India,30.694209,76.860565
1987,210146,Sidi Bel Abbès,Algeria,35.2,-0.641389
1988,209962,Kielce,Poland,50.866077,20.628568
1989,209742,Armavir,Russia,45,41.116667
1990,209473,Phan Thiết,Vietnam,10.933333,108.1
1991,209438,Guatire,Venezuela,10.471667,-66.540556
1992,209170,Eindhoven,Netherlands,51.441642,5.469722
1993,209097,Oberhausen,Germany,51.51399325,6.84932276128
1994,209012,Capiatá,Paraguay,-25.35,-57.42
1995,209000,Potiskum,Nigeria,"11,709","11,086"
1996,208411,Desamparados,Costa Rica,9.896971,-84.061671
1997,208386,Toruń,Poland,53.01379,18.598444
1998,208266,Chungju,Republic of Korea,36.991011,127.92595
1999,208080,Puerto Cabello,Venezuela,10.466667,-68.016667
2000,207510,Des Moines,USA,41.5739,-93.6167
2001,207421,Raichur,India,16.2,77.366667
2002,207317,Kamoke,Pakistan,31.978648,74.218949
2003,207314,Tsukuba,Japan,36.225833,140.105
2004,207299,Kimchaek,Democratic People's Republic of Korea,40.667222,129.200556
2005,207178,Rennes,France,48.117266,-1.677793
2006,207036,Rio Grande,Brazil,-32.031769,-52.102053
2007,206990,Belaya Tserkov,Ukraine,49.798889,30.115278
2008,206973,Cachoeiro de Itapemirim,Brazil,-20.835685,-41.186579
2009,206946,El Tigre,Venezuela,8.882,-64.232974
2010,206923,Kharagpur,India,22.330239,87.323653
2011,206818,Numazu,Japan,35.096932,138.879132
2012,206610,Tuluá,Colombia,4.064711,-76.20206
2013,206500,Jalalabad,Afghanistan,34.434167,70.447778
2014,206490,Pakdasht,Iran,35.466891,51.686062
2015,206440,Chiniot,Pakistan,31.72,72.9789
2016,206250,Chachoengsao,Thailand,13.690419,101.07796
2017,206175,Jōetsu,Japan,37.156505,138.253106
2018,206081,Buenavista,Mexico,19.432608,-99.133208
2019,206070,Kimberley,South Africa,-28.741944,24.771944
2020,206023,Prokopyevsk,Russia,53.883333,86.716667
2021,205933,Acarigua,Venezuela,9.559722,-69.201944
2022,205683,Alvorada,Brazil,-29.934912,-51.027463
2023,205567,Taiping,Malaysia,4.851932,100.741634
2024,205557,Hobart,Australia,-42.881903,147.323815
2025,205456,Chai Nat,Thailand,15.125242,100.142317
2026,205276,La Serena,Chile,-29.906301,-71.250204
2027,205183,Carora,Venezuela,10.181438,-70.073769
2028,205112,Chaiyaphum,Thailand,15.806817,102.031503
2029,205100,Debrecen,Hungary,47.531605,21.627312
2030,205062,Pskov,Russia,57.816699,28.334473
2031,205000,Ajman,United Arab Emirates,25.3995,55.4796
2032,205000,Loburo,Nigeria,"6,798","3,431"
2033,204949,Biratnagar,Nepal,26.4542,87.2797
2034,204933,Modesto,USA,37.6609,-120.9891
2035,204895,Cà Mau,Vietnam,8.96241,105.125896
2036,204880,Erfurt,Germany,50.9778285,11.0296459
2037,204870,Padua,Italy,45.406435,11.876761
2038,204853,Kumagaya,Japan,36.134758,139.386448
2039,204690,Karshi,Uzbekistan,38.866667,65.8
2040,204667,Criciúma,Brazil,-28.686597,-49.382312
2041,204661,Biskra,Algeria,34.85,5.733333
2042,204635,REYKJAVIK,Iceland,64.133333,-21.933333
2043,204486,Cabo Frio,Brazil,-22.835703,-42.029061
2044,204477,Oradea,Romania,47.072222,21.921111
2045,204412,Mỹ Tho,Vietnam,10.376528,106.343889
2046,204408,Fayetteville,USA,35.0851,-78.9803
2047,204336,Panvel,India,18.989401,73.117516
2048,204331,Icheon,Republic of Korea,37.271995,127.434822
